City Name,Latitude,Longitude,Temperature (F),Max. Temp (F),Min. Temp (F),Humidity (%),Cloudiness (%),Wind Speed (mph),Country Code,Date & Time
siavonga,-16.5382,28.7088,82.31,82.31,82.31,60,28,7.87,ZM,14-01-2021 01:03:54
hermanus,-34.4187,19.2345,75.99,75.99,75.99,74,72,13,ZA,14-01-2021 01:03:55
san policarpo,12.1791,125.5072,80.13,80.13,80.13,86,100,9.26,PH,14-01-2021 01:03:58
ulaangom,49.9811,92.0667,-4.92,-4.92,-4.92,91,100,1.28,MN,14-01-2021 01:03:59
mugur-aksy,50.35,90.5,3.69,3.69,3.69,88,100,5.28,RU,14-01-2021 01:04:03
ravar,31.2656,56.8055,48.49,48.49,48.49,41,67,0.38,IR,14-01-2021 01:04:04
zeya,53.75,127.2667,-16.89,-16.89,-16.89,82,45,3.47,RU,14-01-2021 01:04:06
rikitea,-23.1203,-134.9692,77.27,77.27,77.27,79,26,14.2,PF,14-01-2021 01:04:07
vardo,70.3705,31.1107,3.2,3.2,3.2,78,95,41.43,NO,14-01-2021 01:04:11
punta arenas,-53.15,-70.9167,55.2,55.4,55,58,75,17.27,CL,14-01-2021 01:04:14
belle fourche,44.6714,-103.8522,44.62,46.99,42.8,49,1,6.91,US,14-01-2021 01:04:16
bredasdorp,-34.5322,20.0403,77,77,77,65,100,19.57,ZA,14-01-2021 01:04:17
okhotsk,59.3833,143.3,-13.85,-13.85,-13.85,82,0,9.15,RU,14-01-2021 01:04:18
san patricio,28.017,-97.5169,34.39,35.6,33.8,93,75,4.61,US,14-01-2021 01:04:19
new norfolk,-42.7826,147.0587,61.72,64,59,78,98,1.52,AU,14-01-2021 01:04:20
kotovo,50.3211,44.8012,23.18,23.18,23.18,97,100,24.87,RU,14-01-2021 01:04:21
kastamonu,41.5,33.6667,37.4,37.4,37.4,93,90,12.66,TR,14-01-2021 01:04:22
antalaha,-14.9003,50.2788,82.98,82.98,82.98,74,42,4.63,MG,14-01-2021 01:04:23
dawlatabad,36.4141,64.9053,37.83,37.83,37.83,68,0,2.57,AF,14-01-2021 01:04:24
cabo san lucas,22.8909,-109.9124,52.56,53.6,51.8,82,40,9.22,MX,14-01-2021 01:00:26
barrow,71.2906,-156.7887,-2.2,-2.2,-2.2,78,40,24.16,US,14-01-2021 01:04:27
ushuaia,-54.8,-68.3,48.2,48.2,48.2,66,90,3.44,AR,14-01-2021 01:00:09
sao sebastiao,-23.76,-45.4097,81.68,81.68,81.68,81,69,1.68,BR,14-01-2021 01:04:29
hithadhoo,-0.6,73.0833,82.13,82.13,82.13,75,34,20.94,MV,14-01-2021 01:04:30
ponta do sol,32.6667,-17.1,57.31,60.8,51.01,51,75,9.22,PT,14-01-2021 01:04:31
bluff,-46.6,168.3333,55.99,55.99,55.99,86,43,1.01,NZ,14-01-2021 01:04:34
umkomaas,-30.2067,30.7978,80.02,82,78.01,80,87,4,ZA,14-01-2021 01:04:35
mataura,-46.1927,168.8643,55.99,55.99,55.99,86,39,1.01,NZ,14-01-2021 01:04:37
hilo,19.7297,-155.09,65.91,68,64.4,88,20,3.44,US,14-01-2021 01:04:38
benghazi,32.1167,20.0667,60.55,60.55,60.55,59,10,20.69,LY,14-01-2021 01:04:39
jaranwala,31.3333,73.4333,56.41,56.41,56.41,34,0,0.92,PK,14-01-2021 01:04:40
hobart,-42.8794,147.3294,62.4,64,60.01,77,90,8.05,AU,14-01-2021 01:00:40
bagdarin,54.4333,113.6,-21.69,-21.69,-21.69,78,74,2.62,RU,14-01-2021 01:04:42
georgetown,5.4112,100.3354,79.45,80.6,78.01,74,20,8.05,MY,14-01-2021 01:04:44
doha,25.2867,51.5333,71.15,71.6,69.8,43,0,5.75,QA,14-01-2021 01:01:39
castro,-24.7911,-50.0119,75.18,75.18,75.18,74,89,7.29,BR,14-01-2021 01:04:46
hamilton,39.1834,-84.5333,28.56,30.99,26.01,86,1,10.36,US,14-01-2021 01:00:27
sao filipe,14.8961,-24.4956,73.56,73.56,73.56,69,58,9.4,CV,14-01-2021 01:04:48
codrington,-38.2667,141.9667,55.31,55.31,55.31,82,0,9.78,AU,14-01-2021 01:04:50
tiksi,71.6872,128.8694,-33.93,-33.93,-33.93,80,35,3.22,RU,14-01-2021 01:04:51
rincon,32.296,-81.2354,45.07,46.4,44.01,76,90,3.44,US,14-01-2021 01:04:52
arraial do cabo,-22.9661,-42.0278,83.46,84.2,82.4,65,0,19.57,BR,14-01-2021 01:04:53
avarua,-21.2078,-159.775,78.8,78.8,78.8,83,75,8.05,CK,14-01-2021 01:04:54
san cristobal,7.7669,-72.225,75.2,75.2,75.2,60,40,3.44,VE,14-01-2021 01:02:14
thunder bay,48.4001,-89.3168,6.8,6.8,6.8,92,1,4.61,CA,14-01-2021 01:00:13
boa vista,2.8197,-60.6733,82.4,82.4,82.4,61,75,13.8,BR,14-01-2021 01:04:58
caravelas,-17.7125,-39.2481,85.77,85.77,85.77,56,10,8.79,BR,14-01-2021 01:04:59
kodiak,57.79,-152.4072,24.8,24.8,24.8,100,40,6.96,US,14-01-2021 01:05:00
kapaa,22.0752,-159.319,69.8,69.8,69.8,88,20,4.61,US,14-01-2021 01:05:02
qaanaaq,77.484,-69.3632,-0.87,-0.87,-0.87,88,92,1.52,GL,14-01-2021 01:05:03
butaritari,3.0707,172.7902,80.55,80.55,80.55,81,100,19.24,KI,14-01-2021 01:05:04
egvekinot,66.3167,-179.1667,-13.92,-13.92,-13.92,87,90,11.7,RU,14-01-2021 01:05:05
key west,24.5557,-81.7826,67.73,68,66.99,83,1,9.22,US,14-01-2021 01:05:06
cayenne,4.9333,-52.3333,82.4,82.4,82.4,83,90,10.36,GF,14-01-2021 01:04:56
buerarema,-14.9594,-39.2997,80.6,80.6,80.6,83,75,10.36,BR,14-01-2021 01:05:09
pevek,69.7008,170.3133,-12.19,-12.19,-12.19,89,100,5.44,RU,14-01-2021 01:05:10
jamestown,42.097,-79.2353,27.9,28.99,26.6,93,90,11.3,US,14-01-2021 01:00:47
torbay,47.6666,-52.7314,29.62,30.99,28.4,86,75,5.75,CA,14-01-2021 01:03:20
airai,-8.9266,125.4092,63.09,63.09,63.09,100,100,1.39,TL,14-01-2021 01:05:13
kirksville,40.1948,-92.5833,32.9,33.8,32,75,1,11.5,US,14-01-2021 01:05:14
port alfred,-33.5906,26.891,70,70,70,93,100,3,ZA,14-01-2021 01:05:17
ribeira grande,38.5167,-28.7,60.8,60.8,60.8,82,40,8.05,PT,14-01-2021 01:05:18
bud,39.447,-86.1758,30.06,30.2,30,93,1,4.61,US,14-01-2021 01:05:20
vaini,-21.2,-175.2,77,77,77,94,20,4.61,TO,14-01-2021 01:05:21
anupshahr,28.3667,78.2667,53.01,53.01,53.01,43,0,5.23,IN,14-01-2021 01:05:22
praya,14.9215,-23.5087,77,77,77,57,40,21.85,CV,14-01-2021 01:05:23
alta floresta,-9.8756,-56.0861,80.6,80.6,80.6,89,75,3.44,BR,14-01-2021 01:05:24
provideniya,64.3833,-173.3,-3.32,-3.32,-3.32,85,100,8.08,RU,14-01-2021 01:05:25
elat,29.5581,34.9482,75.2,75.2,75.2,57,0,8.05,IL,14-01-2021 01:02:20
port hardy,50.6996,-127.4199,39.9,41,39.2,87,90,9.22,CA,14-01-2021 01:03:11
berlevag,70.8578,29.0864,6.37,10.4,-0.4,52,0,26.46,NO,14-01-2021 01:05:30
kuching,1.55,110.3333,73.2,73.4,73,100,75,20.71,MY,14-01-2021 01:03:07
andra,62.5147,65.8878,-11.58,-11.58,-11.58,85,0,5.03,RU,14-01-2021 01:05:32
albany,42.6001,-73.9662,28.44,30,27,72,69,3,US,14-01-2021 01:04:58
bambous virieux,-20.3428,57.7575,82.22,82.4,82,74,20,11.5,MU,14-01-2021 01:05:34
brae,60.3964,-1.353,41,41,41,75,40,14.97,GB,14-01-2021 01:05:35
bandarbeyla,9.4942,50.8122,75.02,75.02,75.02,67,5,24.52,SO,14-01-2021 01:05:36
bhawanipatna,19.9,83.1667,69.42,69.42,69.42,42,0,2.84,IN,14-01-2021 01:05:10
teguise,29.0605,-13.564,66.2,66.2,66.2,59,20,6.91,ES,14-01-2021 01:05:38
souillac,-20.5167,57.5167,82.4,82.4,82.4,74,20,11.5,MU,14-01-2021 01:01:10
vila velha,-20.3297,-40.2925,86.29,88,84.99,58,20,13.8,BR,14-01-2021 01:04:44
dicabisagan,17.0818,122.4157,73.45,73.45,73.45,85,99,8.97,PH,14-01-2021 01:05:42
puerto cabello,10.4731,-68.0125,77.74,77.74,77.74,69,82,2.39,VE,14-01-2021 01:05:43
kavieng,-2.5744,150.7967,82.31,82.31,82.31,77,17,15.46,PG,14-01-2021 01:05:44
talnakh,69.4865,88.3972,-20.49,-20.49,-20.49,85,27,10.85,RU,14-01-2021 01:05:45
saldanha,-33.0117,17.9442,89.6,89.6,89.6,40,34,13.8,ZA,14-01-2021 01:05:47
vila franca do campo,37.7167,-25.4333,62.6,62.6,62.6,88,40,5.75,PT,14-01-2021 01:05:48
kurchum,48.5722,83.6542,-2.74,-2.74,-2.74,85,100,11.54,KZ,14-01-2021 01:05:49
saint-philippe,-21.3585,55.7679,76.05,84.2,71.01,79,75,5.75,RE,14-01-2021 01:05:50
tunduma,-9.3,32.7667,70.63,70.63,70.63,84,99,6.51,TZ,14-01-2021 01:05:51
yellowknife,62.456,-114.3525,17.56,18,17.01,93,90,9.22,CA,14-01-2021 01:01:27
thompson,55.7435,-97.8558,26.6,26.6,26.6,100,90,3.6,CA,14-01-2021 01:05:53
atuona,-9.8,-139.0333,76.77,76.77,76.77,80,81,16.44,PF,14-01-2021 01:05:54
betare oya,5.6,14.0833,99.28,99.28,99.28,10,49,3.44,CM,14-01-2021 01:05:55
caboolture,-27.0833,152.95,71.17,73.99,69.01,97,5,1.9,AU,14-01-2021 01:05:58
fort nelson,58.8053,-122.7002,10.4,10.4,10.4,92,75,2.3,CA,14-01-2021 01:06:00
isangel,-19.55,169.2667,78.39,78.39,78.39,88,100,6.87,VU,14-01-2021 01:06:02
coquimbo,-29.9533,-71.3436,62.6,62.6,62.6,77,40,10.36,CL,14-01-2021 01:06:03
aklavik,68.2191,-135.0107,-4,-4,-4,77,100,2.3,CA,14-01-2021 01:06:04
olafsvik,64.8945,-23.7142,39.97,39.97,39.97,88,100,26.98,IS,14-01-2021 01:06:05
bengkulu,-3.8004,102.2655,78.13,78.13,78.13,85,100,5.59,ID,14-01-2021 01:06:06
lagos,6.5833,3.75,93.2,93.2,93.2,55,75,5.75,NG,14-01-2021 01:04:15
kruisfontein,-34.0033,24.7314,75,75,75,81,99,7,ZA,14-01-2021 01:06:08
faanui,-16.4833,-151.75,81,81,81,78,20,19.19,PF,14-01-2021 01:06:09
savannah bight,16.45,-85.85,74.07,75,73.4,94,75,4.68,HN,14-01-2021 01:06:10
roald,62.5833,6.1333,27.03,30.2,21,64,0,10.36,NO,14-01-2021 01:06:11
khatanga,71.9667,102.5,-23.06,-23.06,-23.06,86,100,10.51,RU,14-01-2021 01:06:13
quelimane,-17.8786,36.8883,88.39,89.01,87.8,74,75,12.66,MZ,14-01-2021 01:02:48
port elizabeth,-33.918,25.5701,73.4,73.4,73.4,83,90,16.11,ZA,14-01-2021 01:04:22
victoria,22.2855,114.1577,54.75,55.99,52,51,26,5.97,HK,14-01-2021 01:01:23
hofn,64.2539,-15.2082,33.8,33.8,33.8,93,90,4.61,IS,14-01-2021 01:06:19
pathein,16.7833,94.7333,71.38,71.38,71.38,74,1,5.28,MM,14-01-2021 01:06:20
arroyos y esteros,-25.0667,-57.1,84.2,84.2,84.2,65,0,3.44,PY,14-01-2021 01:06:21
porbandar,21.6422,69.6093,73.33,73.33,73.33,25,4,10.67,IN,14-01-2021 01:06:23
hasaki,35.7333,140.8333,32.49,33.8,30.2,86,75,2.3,JP,14-01-2021 01:06:24
birjand,32.8663,59.2211,57.2,57.2,57.2,2,0,6.91,IR,14-01-2021 01:06:25
dikson,73.5069,80.5464,-25.02,-25.02,-25.02,86,59,9.62,RU,14-01-2021 01:06:26
yerbogachen,61.2767,108.0108,-22.29,-22.29,-22.29,85,100,10.09,RU,14-01-2021 01:06:27
cape town,-33.9258,18.4232,83.71,86,80.01,48,0,21.85,ZA,14-01-2021 01:04:36
biak,-0.9131,122.8766,78.6,78.6,78.6,82,100,2.62,ID,14-01-2021 01:06:29
padang,-0.9492,100.3543,80.6,80.6,80.6,78,40,2.3,ID,14-01-2021 01:06:31
chuy,-33.6971,-53.4616,72.27,72.27,72.27,46,0,7.96,UY,14-01-2021 01:06:32
buraydah,26.326,43.975,66.2,66.2,66.2,45,0,4.61,SA,14-01-2021 01:06:33
yanam,16.7333,82.2167,78.8,78.8,78.8,65,100,8.05,IN,14-01-2021 01:06:34
clyde river,70.4692,-68.5914,-16.6,-16.6,-16.6,83,1,2.3,CA,14-01-2021 01:06:35
kaitangata,-46.2817,169.8464,56.82,56.82,56.82,96,77,2.19,NZ,14-01-2021 01:06:36
gillette,44.2911,-105.5022,39.42,42.8,37.99,49,1,18.41,US,14-01-2021 01:06:24
port stanley,-51.7,-57.85,50,50,50,62,75,26.46,FK,14-01-2021 01:06:39
bonfim,3.0833,-59.95,82.4,82.4,82.4,61,61,10.74,BR,14-01-2021 01:06:40
salinas,36.6777,-121.6555,45.23,46.4,44.6,81,1,9.22,US,14-01-2021 01:03:04
kushmurun,52.4503,64.6311,-15.45,-15.45,-15.45,87,16,2.59,KZ,14-01-2021 01:06:42
asau,46.4333,26.4,37,37,37,53,100,3.76,RO,14-01-2021 01:06:43
athboy,53.6186,-6.9206,52.21,53.01,51.8,87,90,14.97,IE,14-01-2021 01:06:45
busselton,-33.65,115.3333,63.37,64,63,59,100,1.01,AU,14-01-2021 01:04:31
chokurdakh,70.6333,147.9167,-39.37,-39.37,-39.37,83,6,1.03,RU,14-01-2021 01:06:47
fukue,32.6881,128.8419,54.64,54.64,54.64,65,0,16.55,JP,14-01-2021 01:06:48
pisco,-13.7,-76.2167,71.35,71.6,71.01,83,48,4.61,PE,14-01-2021 01:04:51
algiers,36.7525,3.042,59,59,59,58,40,8.05,DZ,14-01-2021 01:06:50
vao,-22.6667,167.4833,77.09,77.09,77.09,85,99,18.3,NC,14-01-2021 01:06:51
dwarka,22.2394,68.9678,68.79,68.79,68.79,47,46,9.08,IN,14-01-2021 01:06:53
saint george,37.1041,-113.5841,28.4,28.4,28.4,46,1,1.97,US,14-01-2021 01:06:55
chanika,-5.4167,38.0167,78.33,78.33,78.33,76,20,6.33,TZ,14-01-2021 01:06:56
iqaluit,63.7506,-68.5145,-5.8,-5.8,-5.8,71,75,19.57,CA,14-01-2021 01:06:57
korla,41.7597,86.1469,21,21,21,79,32,2.37,CN,14-01-2021 01:06:58
puerto ayora,-0.7393,-90.3518,77.79,80.6,75.99,69,75,16.11,EC,14-01-2021 01:06:59
charters towers,-20.1,146.2667,74.46,74.46,74.46,88,91,9.31,AU,14-01-2021 01:07:00
luderitz,-26.6481,15.1594,73.45,73.45,73.45,60,6,11.07,NA,14-01-2021 01:07:02
la ronge,55.1001,-105.2842,17.6,17.6,17.6,86,100,3.44,CA,14-01-2021 01:06:59
thinadhoo,0.5333,72.9333,82.56,82.56,82.56,74,25,19.53,MV,14-01-2021 01:07:04
alzamay,55.5562,98.6644,-19.55,-19.55,-19.55,87,33,1.3,RU,14-01-2021 01:07:06
tashla,51.7716,52.7427,0.23,0.23,0.23,92,100,11.59,RU,14-01-2021 01:07:07
flin flon,54.7682,-101.865,8.6,8.6,8.6,85,1,3.44,CA,14-01-2021 01:07:08
guerrero negro,27.9769,-114.0611,48.54,48.54,48.54,57,0,0.74,MX,14-01-2021 01:07:09
saskylakh,71.9167,114.0833,-38.11,-38.11,-38.11,79,98,11.68,RU,14-01-2021 01:07:11
labuhan,-6.8844,112.2051,79.77,79.77,79.77,83,100,8.86,ID,14-01-2021 01:07:12
erzin,36.9559,36.2,66.99,66.99,66.99,60,100,27,TR,14-01-2021 01:07:14
mandera,3.9366,41.867,94.84,94.84,94.84,18,0,12.24,KE,14-01-2021 01:07:15
alta gracia,-31.6529,-64.4283,73.33,75,71.6,83,90,10.36,AR,14-01-2021 01:07:16
mwingi,-0.9344,38.0601,75.69,75.69,75.69,62,4,9.78,KE,14-01-2021 01:07:17
narsaq,60.9167,-46.05,32,32,32,100,75,1.14,GL,14-01-2021 01:07:19
inta,66.0317,60.1659,-13.02,-13.02,-13.02,85,35,11.92,RU,14-01-2021 01:07:21
markova,48.6758,24.4138,32.49,33.01,32,86,75,8.95,UA,14-01-2021 01:07:22
yining,29.0361,114.5636,46.56,46.56,46.56,54,56,2.37,CN,14-01-2021 01:07:23
sitka,57.0531,-135.33,35.6,35.6,35.6,87,90,5.75,US,14-01-2021 01:07:24
tuktoyaktuk,69.4541,-133.0374,-18.49,-18.49,-18.49,89,100,8.46,CA,14-01-2021 01:07:25
starozhilovo,54.2254,39.916,7.2,7.2,7.2,94,100,16.62,RU,14-01-2021 01:07:26
puro,12.4841,123.3827,78.01,78.01,78.01,83,100,11.63,PH,14-01-2021 01:07:27
keetmanshoop,-26.5833,18.1333,69.8,69.8,69.8,94,40,13.8,NA,14-01-2021 01:07:28
moerai,-22.4333,-151.3333,78.94,78.94,78.94,79,13,15.97,PF,14-01-2021 01:07:29
norman wells,65.282,-126.8329,-0.4,-0.4,-0.4,85,90,12.66,CA,14-01-2021 01:07:30
port lincoln,-34.7333,135.8667,59.05,59.05,59.05,82,8,6.62,AU,14-01-2021 01:07:32
babushkin,51.7122,105.8647,3.11,3.11,3.11,86,99,2.42,RU,14-01-2021 01:07:33
bolama,11.5833,-15.4667,89.6,89.6,89.6,22,0,12.66,GW,14-01-2021 01:07:34
williams lake,52.1415,-122.1445,29.32,30,28.4,80,90,17.27,CA,14-01-2021 01:07:36
nalut,30.3333,10.85,56.91,56.91,56.91,35,25,11.74,LY,14-01-2021 01:07:38
verkhnetulomskiy,68.6073,31.7962,-18.4,-18.4,-18.4,76,0,5.41,RU,14-01-2021 01:07:40
havelock,34.8791,-76.9013,38.93,42.8,35.6,100,90,2.51,US,14-01-2021 01:07:41
klaksvik,62.2266,-6.589,39.2,39.2,39.2,75,75,17.27,FO,14-01-2021 01:07:42
irtyshskiy,58.3333,68.1333,-21.41,-21.41,-21.41,85,0,5.03,RU,14-01-2021 01:07:43
voyvozh,62.892,54.9635,-17.03,-17.03,-17.03,89,57,1.74,RU,14-01-2021 01:07:45
floro,61.5996,5.0328,32,32,32,55,0,14.97,NO,14-01-2021 01:07:48
rognan,67.0953,15.3878,19.99,19.99,19.99,75,61,7.43,NO,14-01-2021 01:07:49
mount gambier,-37.8333,140.7667,53.6,53.6,53.6,82,40,6.91,AU,14-01-2021 01:07:50
mar del plata,-38.0023,-57.5575,72.99,75.2,72,33,0,8.05,AR,14-01-2021 01:07:51
burnie,-41.0667,145.9167,57.99,57.99,57.99,90,56,5.99,AU,14-01-2021 01:07:52
daru,-9.0763,143.2092,81.63,81.63,81.63,81,100,3.67,PG,14-01-2021 01:07:54
lompoc,34.6391,-120.4579,46.35,55,39.2,93,1,4.61,US,14-01-2021 01:07:55
bograd,54.2344,90.8328,-4,-4,-4,77,75,4.47,RU,14-01-2021 01:07:56
hanzhong,33.0728,107.0303,41.18,41.18,41.18,63,37,2.46,CN,14-01-2021 01:07:57
mahebourg,-20.4081,57.7,82.4,82.4,82.4,74,20,11.5,MU,14-01-2021 01:07:58
mackay,-21.15,149.2,77.27,78.8,75,83,90,19.57,AU,14-01-2021 01:07:59
hovd,48.0056,91.6419,10.83,10.83,10.83,78,80,10.47,MN,14-01-2021 01:08:02
lalganj,25.8667,85.1833,53.6,53.6,53.6,71,26,2.3,IN,14-01-2021 01:08:02
qujing,25.4833,103.7833,38.82,38.82,38.82,75,0,4.54,CN,14-01-2021 01:08:04
baykit,61.67,96.37,-14.22,-14.22,-14.22,84,100,3.8,RU,14-01-2021 01:08:06
fairbanks,64.8378,-147.7164,-6.9,-5.8,-7.6,84,75,1.74,US,14-01-2021 01:04:02
alice springs,-23.7,133.8833,82.4,82.4,82.4,32,0,4.61,AU,14-01-2021 01:07:32
el mante,22.7333,-98.9667,51.51,52,51.01,68,89,4,MX,14-01-2021 01:08:10
cidreira,-30.1811,-50.2056,72.88,72.88,72.88,70,99,11.63,BR,14-01-2021 01:03:53
srivardhan,18.0333,73.0167,80.65,80.65,80.65,66,2,8.57,IN,14-01-2021 01:08:12
lakselv,70.0513,24.9718,-0.4,-0.4,-0.4,65,20,23.02,NO,14-01-2021 01:08:13
gizo,-8.103,156.8419,82.9,82.9,82.9,78,65,10.6,SB,14-01-2021 01:08:14
camacha,33.0833,-16.3333,60.8,60.8,60.8,44,20,9.22,PT,14-01-2021 01:08:15
carmen,18.6333,-91.8333,68,68,68,100,90,9.22,MX,14-01-2021 01:08:18
touros,-5.1989,-35.4608,84.2,84.2,84.2,61,75,11.5,BR,14-01-2021 01:08:19
marawi,7.9986,124.2928,78.01,78.01,78.01,92,100,4,PH,14-01-2021 01:08:20
carutapera,-1.195,-46.02,83.1,83.1,83.1,75,95,7.76,BR,14-01-2021 01:08:21
makakilo city,21.3469,-158.0858,74.43,77,73,69,75,13.8,US,14-01-2021 01:08:23
palmer,42.1584,-72.3287,27.43,30.99,25,100,75,2.64,US,14-01-2021 01:08:24
urechesti,45.6,27.0667,34.27,34.27,34.27,90,96,1.32,RO,14-01-2021 01:08:25
lebu,-37.6167,-73.65,59.63,59.63,59.63,55,72,13.89,CL,14-01-2021 01:08:28
dutse,11.7594,9.3392,89.96,89.96,89.96,11,0,10.89,NG,14-01-2021 01:08:29
tessalit,20.1986,1.0114,90.07,90.07,90.07,11,0,2.71,ML,14-01-2021 01:08:30
sao joao da barra,-21.6403,-41.0511,87.8,87.8,87.8,48,0,13.8,BR,14-01-2021 01:08:32
east london,-33.0153,27.9116,71.6,71.6,71.6,94,90,10.36,ZA,14-01-2021 01:08:34
xinzhou,38.4092,112.7333,28.13,28.13,28.13,71,0,0.56,CN,14-01-2021 01:08:35
ancud,-41.8697,-73.8203,57.2,57.2,57.2,67,0,5.75,CL,14-01-2021 01:08:36
namibe,-15.1961,12.1522,82.4,82.4,82.4,54,20,19.57,AO,14-01-2021 01:06:04
san jeronimo,-11.9472,-75.2829,55.72,55.72,55.72,62,80,2.26,PE,14-01-2021 01:08:39
geraldton,-28.7667,114.6,75.2,75.2,75.2,73,0,20.71,AU,14-01-2021 01:08:40
shingu,33.7333,135.9833,38.34,38.34,38.34,77,0,6.91,JP,14-01-2021 01:08:41
yichang,30.7144,111.2847,48,48,48,49,60,2.33,CN,14-01-2021 01:08:43
passo de camaragibe,-9.2368,-35.4901,78.8,78.8,78.8,83,75,12.66,BR,14-01-2021 01:08:45
kamina,-8.7386,24.9906,75.33,75.33,75.33,74,96,6.82,CD,14-01-2021 01:08:46
balabac,7.9868,117.0645,80.82,80.82,80.82,81,80,15.17,PH,14-01-2021 01:08:47
mantua,45.1667,10.7833,42.33,44.01,41,67,0,4,IT,14-01-2021 01:08:49
aykhal,66,111.5,-34.69,-34.69,-34.69,81,100,9.95,RU,14-01-2021 01:08:50
cortez,37.3489,-108.5859,12.2,12.2,12.2,79,1,6.91,US,14-01-2021 01:08:51
la seyne-sur-mer,43.0982,5.8847,58.78,59,57.99,62,0,7,FR,14-01-2021 01:08:52
qaqortoq,60.7167,-46.0333,32,32,32,100,75,1.14,GL,14-01-2021 01:08:54
viedma,-40.8135,-62.9967,80.01,80.01,80.01,32,56,16.44,AR,14-01-2021 01:08:55
zelenoborskiy,66.845,32.3622,-8.45,-8.45,-8.45,91,29,1.41,RU,14-01-2021 01:08:56
ostrovnoy,68.0531,39.5131,2.43,2.43,2.43,92,87,15.7,RU,14-01-2021 01:08:57
lagoa,39.05,-27.9833,59.72,59.72,59.72,81,100,11.39,PT,14-01-2021 01:08:58
poum,-20.2333,164.0167,82.04,82.04,82.04,81,100,20.6,NC,14-01-2021 01:09:01
rosarito,32.3333,-117.0333,47.43,53.01,44.6,36,1,5.14,MX,14-01-2021 01:09:02
araouane,18.9048,-3.5265,85.48,85.48,85.48,13,0,8.61,ML,14-01-2021 01:09:04
kibala,9.1104,18.3463,96.8,96.8,96.8,12,0,9.22,TD,14-01-2021 01:09:05
saint-joseph,-21.3667,55.6167,77.5,84.2,71.01,79,75,5.75,RE,14-01-2021 01:09:06
nelson bay,-32.7167,152.15,70.65,72,69.01,83,0,8.05,AU,14-01-2021 01:09:07
kosonsoy,41.2561,71.5508,39.2,39.2,39.2,48,73,2.3,UZ,14-01-2021 01:09:10
tasiilaq,65.6145,-37.6368,32,32,32,93,90,36.82,GL,14-01-2021 01:09:11
kilcormac,53.1742,-7.7256,51.33,52,51.01,93,99,7,IE,14-01-2021 01:09:12
qostanay,53.1667,63.5833,-20.2,-20.2,-20.2,76,20,4.47,KZ,14-01-2021 01:09:13
galesong,-5.3166,119.3661,77,77,77,100,20,4.61,ID,14-01-2021 01:09:14
mizdah,31.4451,12.9801,53.02,53.02,53.02,48,0,19.15,LY,14-01-2021 01:09:15
aksarka,66.5606,67.7975,-2.72,-2.72,-2.72,88,2,15.73,RU,14-01-2021 01:09:17
vuktyl,63.8567,57.3094,-17.9,-17.9,-17.9,87,37,0.92,RU,14-01-2021 01:09:18
zlobin,45.2924,14.6541,47.44,50,45,29,20,6.91,HR,14-01-2021 01:09:19
westport,41.1415,-73.3579,31.98,35.6,28.99,75,90,3.15,US,14-01-2021 01:05:14
esperance,-33.8667,121.9,57.2,57.2,57.2,67,28,10.36,AU,14-01-2021 01:09:21
tsumeb,-19.2333,17.7167,78.8,78.8,78.8,61,100,6.91,NA,14-01-2021 01:09:23
lorengau,-2.0226,147.2712,82.71,82.71,82.71,77,100,9.95,PG,14-01-2021 01:09:24
temir,49.1414,57.13,0.63,0.63,0.63,90,84,10.83,KZ,14-01-2021 01:09:25
rosetta,31.4044,30.4164,68,68,68,68,40,16.11,EG,14-01-2021 01:09:27
constitucion,-35.3333,-72.4167,66.61,66.61,66.61,38,5,4.05,CL,14-01-2021 01:09:28
krasnoarmeysk,51.0239,45.6969,14,14,14,82,100,5.99,RU,14-01-2021 01:09:29
katsuura,35.1333,140.3,48.09,48.2,48,61,75,4.61,JP,14-01-2021 01:09:30
yar-sale,66.8333,70.8333,5.68,5.68,5.68,90,0,17.38,RU,14-01-2021 01:09:33
dunedin,-45.8742,170.5036,60.01,60.01,60.01,85,1,6.04,NZ,14-01-2021 01:05:49
sovetskiy,61.3614,63.5842,-11.43,-11.43,-11.43,86,0,3.89,RU,14-01-2021 01:09:35
luwuk,-0.9516,122.7875,79.79,79.79,79.79,78,100,2.28,ID,14-01-2021 01:09:36
severo-kurilsk,50.6789,156.125,18.68,18.68,18.68,88,91,12.8,RU,14-01-2021 01:09:37
piranhas,-16.4269,-51.8222,87.26,87.26,87.26,55,82,3.38,BR,14-01-2021 01:09:40
huilong,31.8111,121.655,47.41,52,45,50,0,5.93,CN,14-01-2021 01:09:44
smithers,54.7804,-127.1743,17.6,17.6,17.6,93,90,2.3,CA,14-01-2021 01:06:59
bethel,41.3712,-73.414,30.61,30.99,28.99,80,90,1.72,US,14-01-2021 01:05:57
lavrentiya,65.5833,-171,-4.63,-4.63,-4.63,85,100,9.35,RU,14-01-2021 01:09:47
waingapu,-9.6567,120.2641,81.45,81.45,81.45,79,68,2.66,ID,14-01-2021 01:09:49
bireun,5.203,96.7009,77.31,77.31,77.31,85,100,6.98,ID,14-01-2021 01:09:50
ponta delgada,37.7333,-25.6667,62.6,62.6,62.6,88,40,5.75,PT,14-01-2021 01:09:51
taos,36.4072,-105.5731,1.24,6.8,-5.8,78,1,5.75,US,14-01-2021 01:09:52
antigonish,45.6169,-61.9986,28.17,28.99,27,81,92,6.06,CA,14-01-2021 01:09:53
concepcion del oro,24.6333,-101.4167,33.13,33.13,33.13,86,99,1.92,MX,14-01-2021 01:09:54
bridlington,54.0831,-0.1919,36.01,37.99,34,82,100,1.99,GB,14-01-2021 01:09:55
ruteng,-8.6136,120.4721,64.85,64.85,64.85,100,14,1.81,ID,14-01-2021 01:09:56
kilindoni,-7.9139,39.6668,81.77,81.77,81.77,79,16,18.03,TZ,14-01-2021 01:09:57
luau,-10.7073,22.2247,76.69,76.69,76.69,75,100,3.62,AO,14-01-2021 01:09:58
broome,42.2506,-75.833,27.68,30,26.01,80,90,5.75,US,14-01-2021 01:09:59
pakhtakoron,40.1571,68.7466,37.47,37.47,37.47,74,76,3.06,TJ,14-01-2021 01:10:00
saint anthony,45.0205,-93.218,28.42,30,26.6,93,75,1.99,US,14-01-2021 01:10:02
san,13.3034,-4.8956,97.07,97.07,97.07,8,0,16.04,ML,14-01-2021 01:10:04
walvis bay,-22.9575,14.5053,80.6,80.6,80.6,54,80,11.5,NA,14-01-2021 01:10:06
cockburn town,21.4612,-71.1419,78.8,78.8,78.8,73,40,12.66,TC,14-01-2021 01:07:21
yangambi,0.8102,24.4336,91.94,91.94,91.94,37,16,3.42,CD,14-01-2021 01:07:17
montrose,38.4166,-108.2673,16.57,23,12.2,79,1,8.05,US,14-01-2021 01:10:11
urdoma,61.7533,48.5442,-16.67,-16.67,-16.67,87,1,3.71,RU,14-01-2021 01:10:13
yertsevo,60.7966,40.086,-19.46,-19.46,-19.46,88,0,5.66,RU,14-01-2021 01:10:14
tiarei,-17.5333,-149.3333,76.1,77,75.2,94,75,4.61,PF,14-01-2021 01:10:15
umea,63.8284,20.2597,10.4,10.4,10.4,85,90,13.8,SE,14-01-2021 01:10:16
tilichiki,60.4667,166.1,-23.66,-23.66,-23.66,84,19,8.41,RU,14-01-2021 01:10:17
can tho,10.0333,105.7833,69.8,69.8,69.8,100,0,2.3,VN,14-01-2021 01:10:18
bilibino,68.0546,166.4372,-15.25,-15.25,-15.25,83,100,5.44,RU,14-01-2021 01:10:20
kudahuvadhoo,2.6708,72.8944,82.27,82.27,82.27,77,100,19.04,MV,14-01-2021 01:10:21
san carlos de bariloche,-41.1456,-71.3082,64.4,64.4,64.4,32,0,5.75,AR,14-01-2021 01:06:38
goderich,43.7501,-81.7165,33.8,33.8,33.8,80,100,12.66,CA,14-01-2021 01:10:24
rolla,37.9514,-91.7713,33.28,33.8,33.01,75,1,11.5,US,14-01-2021 01:10:29
nikolskoye,59.7035,30.7861,6.24,7,5,78,75,13.42,RU,14-01-2021 01:10:30
sapozhok,53.9419,40.6806,9.88,9.88,9.88,94,100,16.13,RU,14-01-2021 01:10:31
ajaccio,42,8.9167,57.2,57.2,57.2,58,20,2.3,FR,14-01-2021 01:10:32
lasa,46.6166,10.7002,37.6,43,28.4,37,20,5.75,IT,14-01-2021 01:10:33
kahului,20.8947,-156.47,70.54,75.2,66.99,78,1,5.75,US,14-01-2021 01:10:34
leh,34.1667,77.5833,10.54,10.54,10.54,35,0,1.39,IN,14-01-2021 01:10:35
cervo,43.6702,-7.4101,53.01,53.01,53.01,72,0,1.01,ES,14-01-2021 01:10:37
colares,38.7992,-9.4469,53.6,55.99,51.01,58,0,4.61,PT,14-01-2021 01:10:38
shenjiamen,29.9576,122.298,49.05,49.05,49.05,80,0,12.01,CN,14-01-2021 01:10:41
cherskiy,68.75,161.3,-16.96,-16.96,-16.96,86,100,12.24,RU,14-01-2021 01:10:42
hailar,49.2,119.7,-15.45,-15.45,-15.45,87,30,7.38,CN,14-01-2021 01:10:43
selikhino,50.3672,137.4996,-6.83,-6.83,-6.83,89,100,8.9,RU,14-01-2021 01:10:44
conde,-7.2597,-34.9075,86,86,86,62,75,8.05,BR,14-01-2021 01:06:40
bowen,-20.0167,148.2333,77,77,77,88,90,10.36,AU,14-01-2021 01:10:48
henties bay,-22.116,14.2845,69.3,69.3,69.3,75,63,8.61,NA,14-01-2021 01:10:50
suntar,62.1444,117.6319,-17.45,-17.45,-17.45,87,100,5.82,RU,14-01-2021 01:10:54
lata,40.1629,-8.3327,54.3,59,51.01,69,0,3,PT,14-01-2021 01:10:55
basco,20.4487,121.9702,69.53,69.53,69.53,79,100,23.4,PH,14-01-2021 01:10:56
tura,25.5198,90.2201,56.05,56.05,56.05,38,0,2.01,IN,14-01-2021 01:08:06
adrar,20.5022,-10.0711,78.22,78.22,78.22,16,0,14.67,MR,14-01-2021 01:10:59
ilulissat,69.2167,-51.1,26.6,26.6,26.6,80,75,4.61,GL,14-01-2021 01:11:00
renala khurd,30.8833,73.6,56.53,56.53,56.53,34,0,1.19,PK,14-01-2021 01:11:01
hargeysa,9.56,44.065,66.29,66.29,66.29,49,20,17.98,SO,14-01-2021 01:11:03
lixourion,38.2019,20.4314,57.2,57.2,57.2,54,40,20.71,GR,14-01-2021 01:11:04
kuala terengganu,5.3302,103.1408,78.4,78.8,78.01,73,40,8.05,MY,14-01-2021 01:11:05
tuatapere,-46.1333,167.6833,55.99,55.99,55.99,86,11,1.01,NZ,14-01-2021 01:11:06
ballina,-28.8667,153.5667,67.66,69.8,66,88,15,4.61,AU,14-01-2021 01:11:07
san juan,-31.5375,-68.5364,79.59,79.59,79.59,37,0,5.48,AR,14-01-2021 01:06:15
upernavik,72.7868,-56.1549,12.07,12.07,12.07,95,100,17.13,GL,14-01-2021 01:11:10
santiago de chuco,-8.15,-78.1833,57.24,57.24,57.24,61,78,4.52,PE,14-01-2021 01:11:11
chulumani,-16.4096,-67.5263,68.14,68.14,68.14,75,100,2.06,BO,14-01-2021 01:11:13
troy,42.6056,-83.1499,31.35,33.01,30,93,90,8.05,US,14-01-2021 01:08:41
kavaratti,10.5669,72.642,74.88,74.88,74.88,87,100,7.58,IN,14-01-2021 01:11:15
flinders,-34.5833,150.8552,72,72,72,81,39,1.01,AU,14-01-2021 01:11:16
karratha,-20.7377,116.8463,93.16,93.16,93.16,36,31,15.28,AU,14-01-2021 01:11:17
safaga,26.7292,33.9365,78.8,78.8,78.8,53,0,10.36,EG,14-01-2021 01:11:18
kununurra,-15.7667,128.7333,80.6,80.6,80.6,94,99,4.61,AU,14-01-2021 01:11:19
ayan,56.45,138.1667,-13.54,-13.54,-13.54,79,76,2.64,RU,14-01-2021 01:11:20
carnarvon,-24.8667,113.6333,78.8,78.8,78.8,89,0,19.57,AU,14-01-2021 01:07:34
portland,45.5234,-122.6762,44.1,46.99,41,76,75,9.22,US,14-01-2021 01:08:39
guilin,25.2819,110.2864,46.4,46.4,46.4,66,0,0.96,CN,14-01-2021 01:11:25
tekeli,44.83,78.8239,10.4,10.4,10.4,83,58,7.74,KZ,14-01-2021 01:11:26
udachnyy,66.4167,112.4,-35.99,-35.99,-35.99,80,85,7.58,RU,14-01-2021 01:07:50
kedrovyy,56.1667,91.8167,-7.6,-7.6,-7.6,77,40,2.66,RU,14-01-2021 01:11:30
mayo,38.8876,-76.5119,33.87,34,33.8,86,1,1.79,US,14-01-2021 01:11:32
cheney,47.4874,-117.5758,41.92,43,41,65,1,44.87,US,14-01-2021 01:11:33
salalah,17.0151,54.0924,80.6,80.6,80.6,17,0,23.02,OM,14-01-2021 01:11:34
san quintin,30.4833,-115.95,54.36,54.36,54.36,44,0,2.15,MX,14-01-2021 01:11:35
yerofey pavlovich,53.9667,121.9667,-16.89,-16.89,-16.89,86,100,1.54,RU,14-01-2021 01:11:36
galle,6.0367,80.217,75.65,75.65,75.65,88,92,6.31,LK,14-01-2021 01:11:37
nagapattinam,10.7667,79.8333,77.45,77.45,77.45,89,0,12.95,IN,14-01-2021 01:11:38
diamantino,-14.4086,-56.4461,88.2,88.2,88.2,56,84,3.4,BR,14-01-2021 01:11:39
bundaberg,-24.85,152.35,70.43,71.01,69.8,83,0,5.75,AU,14-01-2021 01:11:42
otavalo,0.2333,-78.2667,62.6,62.6,62.6,72,20,2.3,EC,14-01-2021 01:11:43
yelkhovka,53.8667,50.2832,-9.4,-9.4,-9.4,77,75,2.24,RU,14-01-2021 01:11:45
santa maria,-29.6842,-53.8069,78.51,78.51,78.51,58,76,11.77,BR,14-01-2021 01:11:46
lar,26.2039,83.9717,54.81,54.81,54.81,52,0,4.47,IN,14-01-2021 01:11:47
vallenar,-28.5708,-70.7581,74.91,74.91,74.91,39,0,4.59,CL,14-01-2021 01:11:48
kasongo-lunda,-6.4667,16.8167,90.01,90.01,90.01,43,1,3.76,CD,14-01-2021 01:10:04
takoradi,4.8845,-1.7554,84.09,84.09,84.09,71,28,10.18,GH,14-01-2021 01:11:51
nantucket,41.2835,-70.0995,36.75,37.4,36,65,1,11.5,US,14-01-2021 01:07:00
hutchinson,38.0608,-97.9298,26.6,26.6,26.6,68,1,9.73,US,14-01-2021 01:11:53
santa rosa de cabal,4.8681,-75.6214,71.6,71.6,71.6,78,75,2.3,CO,14-01-2021 01:11:54
konya,38.1667,32.5,39.2,39.2,39.2,87,75,12.66,TR,14-01-2021 01:07:27
chivilcoy,-34.8957,-60.0167,82.81,82.81,82.81,16,0,9.15,AR,14-01-2021 01:08:21
morondava,-20.2833,44.2833,86.79,86.79,86.79,67,4,12.06,MG,14-01-2021 01:11:58
necochea,-38.5473,-58.7368,71.4,71.4,71.4,29,0,6.22,AR,14-01-2021 01:11:59
grand-santi,4.25,-54.3833,78.17,78.17,78.17,88,74,4.25,GF,14-01-2021 01:12:01
synya,65.3718,58.0387,-14.28,-14.28,-14.28,88,20,3.91,RU,14-01-2021 01:12:02
jurm,36.8648,70.8342,37.33,37.33,37.33,51,0,4.61,AF,14-01-2021 01:12:04
akureyri,65.6835,-18.0878,37.4,37.4,37.4,65,0,6.91,IS,14-01-2021 01:12:05
north bend,43.4065,-124.2243,48.02,48.99,46.99,100,90,5.75,US,14-01-2021 01:10:29
ponta pora,-22.5361,-55.7256,86,86,86,70,20,2.3,BR,14-01-2021 01:12:07
gat,31.61,34.7642,73.31,73.99,73,34,100,4,IL,14-01-2021 01:12:05
dabakala,8.3667,-4.4333,99.97,99.97,99.97,21,68,4.16,CI,14-01-2021 01:12:09
nome,64.5011,-165.4064,12.79,14,12,85,98,2.19,US,14-01-2021 01:12:10
znojmo,48.8555,16.0488,36.32,37.99,35.01,69,14,4,CZ,14-01-2021 01:12:11
vostok,46.4856,135.8833,7.9,7.9,7.9,96,99,2.3,RU,14-01-2021 01:12:12
brazzaville,-4.2658,15.2832,88.5,89.6,87.8,58,75,6.91,CG,14-01-2021 01:12:14
melfort,52.8667,-104.6177,17.6,17.6,17.6,93,100,11.5,CA,14-01-2021 01:12:15
kamenka,51.3223,42.7678,21.47,21.47,21.47,97,100,23.64,RU,14-01-2021 01:12:16
solnechnyy,50.7214,136.6319,-7.15,-7.15,-7.15,87,100,7.09,RU,14-01-2021 01:12:17
marsabit,2.3284,37.9899,78.19,78.19,78.19,31,0,11.88,KE,14-01-2021 01:12:18
kochinda,21.7333,84.35,63.45,63.45,63.45,39,0,1.41,IN,14-01-2021 01:12:19
saint-francois,46.4154,3.9054,47.64,48.2,46.99,93,90,12.66,FR,14-01-2021 01:12:21
sakakah,29.9697,40.2064,69.8,69.8,69.8,18,0,12.66,SA,14-01-2021 01:07:32
saint-augustin,51.226,-58.6502,17.51,17.51,17.51,87,65,5.26,CA,14-01-2021 01:12:24
severnyy,50.677,36.5532,24.8,24.8,24.8,93,90,20.13,RU,14-01-2021 01:12:25
calabozo,8.9242,-67.4293,80.74,80.74,80.74,59,92,9.69,VE,14-01-2021 01:12:26
bubaque,11.2833,-15.8333,80.08,80.08,80.08,52,0,5.73,GW,14-01-2021 01:12:27
omsukchan,62.5333,155.8,-31.54,-31.54,-31.54,82,99,3.36,RU,14-01-2021 01:12:29
hirara,24.8,125.2833,63.32,63.32,63.32,59,65,10.76,JP,14-01-2021 01:12:31
muisne,0.6,-80.0333,75.2,75.2,75.2,94,40,3.44,EC,14-01-2021 01:12:32
katherine,-14.4667,132.2667,86,86,86,66,92,5.75,AU,14-01-2021 01:12:34
naze,28.3667,129.4833,52.21,52.21,52.21,65,24,3.87,JP,14-01-2021 01:12:35
turinsk,58.0458,63.696,-17.34,-17.34,-17.34,87,5,4.21,RU,14-01-2021 01:12:37
olinda,-8.0089,-34.8553,82.4,82.4,82.4,61,75,8.05,BR,14-01-2021 01:12:38
carolina,18.3808,-65.9574,79.48,80.6,77,74,40,17.27,PR,14-01-2021 01:10:02
verkhnyaya inta,65.9811,60.3094,-12.69,-12.69,-12.69,86,27,11.23,RU,14-01-2021 01:12:43
sobolevo,54.4299,31.8996,20.25,20.25,20.25,96,100,12.35,RU,14-01-2021 01:12:44
te anau,-45.4167,167.7167,56.57,56.57,56.57,83,84,3.18,NZ,14-01-2021 01:12:45
nemuro,43.3236,145.575,28.45,28.45,28.45,93,18,14.29,JP,14-01-2021 01:12:46
manicore,-5.8092,-61.3003,87.46,87.46,87.46,59,68,3.85,BR,14-01-2021 01:12:47
shelburne,44.0787,-80.2041,30.09,32,28,98,99,13.09,CA,14-01-2021 01:12:49
prince rupert,54.3161,-130.3201,38.91,42.8,35.6,93,75,6.91,CA,14-01-2021 01:12:50
paamiut,61.994,-49.6678,26.53,26.53,26.53,97,100,15.5,GL,14-01-2021 01:12:51
mecca,21.4267,39.8261,81.72,81.72,81.72,30,0,10.22,SA,14-01-2021 01:10:07
krasnoselkup,65.7,82.4667,11.21,11.21,11.21,95,100,18.48,RU,14-01-2021 01:12:54
nizwa,22.9333,57.5333,64.4,64.4,64.4,25,0,5.17,OM,14-01-2021 01:12:14
maracanau,-3.8767,-38.6256,84.09,86,82,62,75,13.8,BR,14-01-2021 01:12:58
iglino,54.8324,56.4126,-5.4,-5.01,-5.8,77,90,4.47,RU,14-01-2021 01:13:01
lima,-12.0432,-77.0282,70.81,71.6,70,83,75,6.91,PE,14-01-2021 01:13:03
catuday,16.2923,119.8062,76.01,76.01,76.01,76,0,9.22,PH,14-01-2021 01:13:04
maceio,-9.6658,-35.7353,78.8,78.8,78.8,83,75,12.66,BR,14-01-2021 01:13:06
bairiki,1.3292,172.9752,78.8,78.8,78.8,83,40,11.5,KI,14-01-2021 01:13:07
half moon bay,37.4636,-122.4286,49.96,53.01,48,93,40,2.01,US,14-01-2021 01:13:09
gravdal,68.1214,13.5031,26.6,26.6,26.6,80,40,3.44,NO,14-01-2021 01:13:10
arlit,18.7369,7.3853,88.72,88.72,88.72,11,45,4.09,NE,14-01-2021 01:13:12
coruripe,-10.1256,-36.1756,84.7,84.7,84.7,60,100,12.97,BR,14-01-2021 01:13:15
malakwal,32.5536,73.2123,55.11,55.11,55.11,38,0,1.63,PK,14-01-2021 01:13:17
trat,12.5,102.5,66.54,66.54,66.54,61,0,4.52,TH,14-01-2021 01:13:18
kochevo,59.5994,54.3125,-16.87,-16.87,-16.87,88,0,2.68,RU,14-01-2021 01:13:20
havre-saint-pierre,50.2334,-63.5986,10.4,10.4,10.4,79,75,8.05,CA,14-01-2021 01:13:22
roma,43.2128,-75.4557,29.82,30.2,28.99,80,90,4.61,US,14-01-2021 01:13:23
roebourne,-20.7833,117.1333,94.46,94.46,94.46,32,19,13.33,AU,14-01-2021 01:13:25
apatou,5.155,-54.3472,78.75,78.75,78.75,90,43,5.41,GF,14-01-2021 01:13:26
cortes,41.9395,-1.4396,50.88,51.8,50,66,0,21.85,ES,14-01-2021 01:13:28
taft,31.7471,54.2088,59,59,59,10,0,4.61,IR,14-01-2021 01:13:31
saurimo,-9.6608,20.3916,82.4,82.4,82.4,47,75,5.75,AO,14-01-2021 01:13:33
abaza,52.655,90.0928,11.68,11.68,11.68,90,100,9.06,RU,14-01-2021 01:13:35
tutoia,-2.7619,-42.2744,89.6,89.6,89.6,55,40,16.11,BR,14-01-2021 01:13:36
berezhany,49.45,24.9333,32.47,33.01,32,86,75,8.95,UA,14-01-2021 01:13:39
ust-tsilma,65.441,52.1498,-12.24,-12.24,-12.24,87,66,3.49,RU,14-01-2021 01:13:41
nabire,-3.3667,135.4833,77.32,77.32,77.32,85,100,3.04,ID,14-01-2021 01:10:52
broken hill,-31.95,141.4333,86,86,86,20,40,12.66,AU,14-01-2021 01:13:43
licata,37.1071,13.9461,59,59,59,63,40,8.05,IT,14-01-2021 01:13:44
kumluca,36.3703,30.2869,62.85,62.85,62.85,50,1,14.58,TR,14-01-2021 01:13:46
tolaga bay,-38.3667,178.3,62.94,62.94,62.94,88,96,2.64,NZ,14-01-2021 01:13:49
wanaka,-44.7,169.15,55.87,55.87,55.87,70,0,3.62,NZ,14-01-2021 01:13:17
rocha,-34.4833,-54.3333,75.79,75.79,75.79,30,0,6.6,UY,14-01-2021 01:13:51
lyman,48.9884,37.8023,35.96,35.96,35.96,98,100,11.45,UA,14-01-2021 01:13:53
kalmunai,7.4167,81.8167,75.49,75.49,75.49,93,100,3.87,LK,14-01-2021 01:13:54
ostersund,63.1792,14.6357,8.6,8.6,8.6,85,90,5.75,SE,14-01-2021 01:13:52
xinqing,48.2333,129.5,-3.96,-3.96,-3.96,91,100,2.77,CN,14-01-2021 01:13:58
laguna,38.421,-121.4238,46.06,48.99,44.6,87,1,3.44,US,14-01-2021 01:13:43
trinidad,-14.8333,-64.9,75.2,75.2,75.2,100,90,11.5,BO,14-01-2021 01:10:10
yeppoon,-23.1333,150.7333,75.2,75.2,75.2,78,90,6.91,AU,14-01-2021 01:14:03
batagay,67.6333,134.6333,-42.7,-42.7,-42.7,74,72,0.18,RU,14-01-2021 01:14:04
luancheng,37.8792,114.6517,35.6,35.6,35.6,30,0,4.47,CN,14-01-2021 01:14:05
yarmouth,41.7057,-70.2286,36.19,37.99,35.01,65,1,6.91,US,14-01-2021 01:14:07
kouroussa,10.65,-9.8833,96.49,96.49,96.49,10,3,7.65,GN,14-01-2021 01:14:09
evensk,61.95,159.2333,-16.04,-16.04,-16.04,73,70,5.84,RU,14-01-2021 01:14:10
tashara,55.5195,83.5094,-24.57,-24.57,-24.57,86,26,2.91,RU,14-01-2021 01:14:11
kalmanhaza,47.8833,21.5833,35.6,35.6,35.6,80,37,1.14,HU,14-01-2021 01:14:13
okha,53.5739,142.9478,-8.59,-8.59,-8.59,86,100,9.17,RU,14-01-2021 01:14:15
northam,51.0333,-4.2167,48.99,51.01,48,98,100,11.99,GB,14-01-2021 01:14:16
eydhafushi,5.1033,73.0708,80.11,80.11,80.11,79,100,8.86,MV,14-01-2021 01:14:17
leningradskiy,69.3833,178.4167,-14.42,-14.42,-14.42,87,100,10.45,RU,14-01-2021 01:14:18
mezen,65.8522,44.24,-13.18,-13.18,-13.18,86,81,4.76,RU,14-01-2021 01:14:19
bonavista,48.6499,-53.1147,24.31,27,23,93,24,3.44,CA,14-01-2021 01:14:20
vagamo,61.8751,9.0967,10.56,10.56,10.56,83,0,4.38,NO,14-01-2021 01:14:21
coihaique,-45.5752,-72.0662,55.4,55.4,55.4,62,75,2.3,CL,14-01-2021 01:14:22
victor harbor,-35.5667,138.6167,57.2,60.01,55.99,88,0,7.27,AU,14-01-2021 01:14:24
vestmannaeyjar,63.4427,-20.2734,42.8,42.8,42.8,93,90,33.38,IS,14-01-2021 01:10:01
preobrazheniye,42.9019,133.9064,23.32,23.32,23.32,90,35,11.48,RU,14-01-2021 01:14:29
gafargaon,24.4333,90.5667,69.8,69.8,69.8,64,40,5.95,BD,14-01-2021 01:14:30
antofagasta,-23.65,-70.4,68,68,68,68,20,13.8,CL,14-01-2021 01:09:41
todos santos,23.45,-110.2167,55.99,55.99,55.99,62,29,8.12,MX,14-01-2021 01:14:32
hoi an,15.8794,108.335,59,59,59,88,20,2.19,VN,14-01-2021 01:11:25
aripuana,-9.1667,-60.6333,88.38,88.38,88.38,56,70,2.84,BR,14-01-2021 01:14:35
leeds,53.7964,-1.5477,36.86,37.99,35.6,87,75,1.14,GB,14-01-2021 01:13:01
moron,-34.6534,-58.6198,75,78.01,73,38,0,4,AR,14-01-2021 01:14:37
tabuk,17.4189,121.4443,68.34,68.34,68.34,89,87,4.5,PH,14-01-2021 01:14:38
sola,-13.8833,167.55,81.77,81.77,81.77,79,100,10.36,VU,14-01-2021 01:14:40
port moresby,-9.4431,147.1797,77,77,77,100,40,3.44,PG,14-01-2021 01:14:41
port-gentil,-0.7193,8.7815,78.8,78.8,78.8,83,75,10.36,GA,14-01-2021 01:14:42
mayumba,-3.432,10.6554,74.32,74.32,74.32,94,100,11.32,GA,14-01-2021 01:14:44
roseburg,43.2165,-123.3417,47.95,48.99,46,87,90,1.88,US,14-01-2021 01:14:47
irpa irpa,-17.7167,-66.2667,55.4,55.4,55.4,100,90,4.61,BO,14-01-2021 01:14:48
mana,5.6592,-53.7767,80.94,80.94,80.94,77,100,12.97,GF,14-01-2021 01:14:49
alofi,-19.0595,-169.9187,75.2,75.2,75.2,94,91,2.3,NU,14-01-2021 01:14:50
abu samrah,35.3029,37.1841,63.91,63.91,63.91,37,100,18.07,SY,14-01-2021 01:14:53
jensen beach,27.2545,-80.2298,58.75,60.01,57,88,75,5.75,US,14-01-2021 01:14:54
segou,13.4317,-6.2157,96.69,96.69,96.69,8,3,14.23,ML,14-01-2021 01:14:56
najran,17.4924,44.1277,68,68,68,30,0,9.22,SA,14-01-2021 01:14:57
atar,20.5169,-13.0499,79.99,79.99,79.99,16,0,12.5,MR,14-01-2021 01:14:58
nyurba,63.2842,118.3319,-21.26,-21.26,-21.26,86,100,4.72,RU,14-01-2021 01:14:59
malinyi,-8.9333,36.1333,85.64,85.64,85.64,70,72,4.29,TZ,14-01-2021 01:15:01
hualmay,-11.0964,-77.6139,71.53,71.53,71.53,81,99,7.81,PE,14-01-2021 01:15:04
itoman,26.1247,127.6694,55.76,59,51.8,55,0,5.75,JP,14-01-2021 01:15:05
mehamn,71.0357,27.8492,12.58,19.4,10.4,52,0,26.46,NO,14-01-2021 01:15:06
marzuq,14.4,46.4667,68.36,68.36,68.36,25,0,9.17,YE,14-01-2021 01:15:08
homer,59.6425,-151.5483,33.55,36,30,86,20,4.61,US,14-01-2021 01:15:10
kysyl-syr,63.8986,122.7617,-37.71,-37.71,-37.71,81,98,6.98,RU,14-01-2021 01:15:14
zapolyarnyy,69.4154,30.8136,-4,-4,-4,71,0,14.97,RU,14-01-2021 01:10:19
sumbe,-11.2061,13.8437,82.4,82.4,82.4,61,40,5.75,AO,14-01-2021 01:15:17
oranjemund,-28.55,16.4333,70.72,70.72,70.72,65,9,10.29,NA,14-01-2021 01:15:19
el jicaro,14.9167,-89.9,69.8,69.8,69.8,88,75,1.74,GT,14-01-2021 01:15:21
vitim,59.4511,112.5578,-14.75,-14.75,-14.75,85,100,8.68,RU,14-01-2021 01:15:22
omboue,-1.5746,9.2618,73.99,73.99,73.99,91,100,9.4,GA,14-01-2021 01:15:23
gasa,31.5,34.4667,73.33,73.99,73,34,100,1.99,PS,14-01-2021 01:15:24
samarai,-10.6167,150.6667,83.62,83.62,83.62,78,100,8.28,PG,14-01-2021 01:15:25
lahat,-3.8,103.5333,72.73,72.73,72.73,93,100,2.68,ID,14-01-2021 01:15:26
