City Name,Latitude,Longitude,Temperature (F),Max. Temp (F),Min. Temp (F),Humidity (%),Cloudiness (%),Wind Speed (mph),Country Code,Date & Time
georgetown,5.4112,100.3354,74.93,77,73,88,40,3.44,MY,14-01-2021 11:49:31
phalaborwa,-23.943,31.1411,75.2,75.2,75.2,83,47,6.91,ZA,14-01-2021 11:49:32
mataura,-46.1927,168.8643,78.73,78.73,78.73,41,0,2.89,NZ,14-01-2021 11:49:33
karpathos,35.507,27.2132,59,59,59,72,1,29.93,GR,14-01-2021 11:49:34
puerto ayora,-0.7393,-90.3518,75.99,75.99,75.99,91,95,7,EC,14-01-2021 11:49:35
rikitea,-23.1203,-134.9692,77.95,77.95,77.95,75,100,12.97,PF,14-01-2021 11:49:36
bluff,-46.6,168.3333,60.98,60.98,60.98,80,11,5.01,NZ,14-01-2021 11:49:37
wanaka,-44.7,169.15,75.18,75.18,75.18,42,3,2.59,NZ,14-01-2021 11:45:52
aykhal,66,111.5,-28.91,-28.91,-28.91,82,100,9.08,RU,14-01-2021 11:49:39
tasiilaq,65.6145,-37.6368,32,32,32,86,90,31.07,GL,14-01-2021 11:49:40
cape town,-33.9258,18.4232,69.48,70,69.01,78,0,13.8,ZA,14-01-2021 11:48:38
kruisfontein,-34.0033,24.7314,70,70,70,91,100,3,ZA,14-01-2021 11:49:42
ossora,59.2353,163.0719,-5.82,-5.82,-5.82,87,100,2.59,RU,14-01-2021 11:49:43
darab,28.7519,54.5444,46.81,46.81,46.81,42,0,2.64,IR,14-01-2021 11:48:19
punta arenas,-53.15,-70.9167,53.29,53.6,53.01,71,75,18.41,CL,14-01-2021 11:49:45
port alfred,-33.5906,26.891,66,66,66,97,100,18.34,ZA,14-01-2021 11:49:47
hermanus,-34.4187,19.2345,70,70,70,85,47,8.99,ZA,14-01-2021 11:49:48
pacific grove,36.6177,-121.9166,59.34,61,57.99,63,1,3.44,US,14-01-2021 11:47:21
avarua,-21.2078,-159.775,84.2,84.2,84.2,74,75,20.71,CK,14-01-2021 11:49:50
busselton,-33.65,115.3333,65.23,66,64,54,68,3,AU,14-01-2021 11:49:51
mount isa,-20.7333,139.5,93.2,93.2,93.2,29,0,11.5,AU,14-01-2021 11:49:52
bayan,46.0833,127.4,-3.44,-3.44,-3.44,92,99,5.55,CN,14-01-2021 11:49:53
geraldton,-28.7667,114.6,84.2,84.2,84.2,28,0,16.11,AU,14-01-2021 11:49:54
bambous virieux,-20.3428,57.7575,77,77,77,88,40,5.75,MU,14-01-2021 11:49:55
chervishevo,56.9464,65.4278,-20.2,-20.2,-20.2,76,0,8.95,RU,14-01-2021 11:49:56
mkushi,-13.6202,29.3939,64.9,64.9,64.9,96,100,4.68,ZM,14-01-2021 11:49:57
westport,41.1415,-73.3579,34.02,37,30,80,75,3.44,US,14-01-2021 11:47:03
lavrentiya,65.5833,-171,-2.43,-2.43,-2.43,89,100,4.12,RU,14-01-2021 11:49:59
redlands,34.0556,-117.1825,68.13,75.2,54,15,75,4.61,US,14-01-2021 11:47:13
san pedro,14.35,121.0167,78.91,80.01,78.01,73,75,2.3,PH,14-01-2021 11:50:03
severo-kurilsk,50.6789,156.125,21.72,21.72,21.72,83,27,5.28,RU,14-01-2021 11:50:05
ushuaia,-54.8,-68.3,55.4,55.4,55.4,67,75,8.05,AR,14-01-2021 11:50:06
kayes,14,-11,75.42,75.42,75.42,18,0,6.78,ML,14-01-2021 11:50:08
benguela,-12.5763,13.4055,73.99,73.99,73.99,72,100,4.18,AO,14-01-2021 11:50:09
mackay,-21.15,149.2,83.05,84,82.4,69,100,18.41,AU,14-01-2021 11:50:11
lazaro cardenas,17.9583,-102.2,76.8,76.8,76.8,65,28,5.59,MX,14-01-2021 11:50:12
arraial do cabo,-22.9661,-42.0278,76.15,76.15,76.15,88,90,19.42,BR,14-01-2021 11:50:13
pevek,69.7008,170.3133,-18.92,-18.92,-18.92,89,100,3,RU,14-01-2021 11:50:14
lebu,-37.6167,-73.65,55.15,55.15,55.15,84,0,15.05,CL,14-01-2021 11:50:16
mandalgovi,45.7625,106.2708,5.59,5.59,5.59,90,100,8.23,MN,14-01-2021 11:50:17
leningradskiy,69.3833,178.4167,-9.69,-9.69,-9.69,90,100,7.61,RU,14-01-2021 11:50:18
komsomolskiy,40.4272,71.7189,28.4,28.4,28.4,80,0,4.61,UZ,14-01-2021 11:50:20
novyy urengoy,66.0833,76.6333,9.12,9.12,9.12,94,100,20.58,RU,14-01-2021 11:50:21
sandy bay,-42.913,147.3532,67.95,71.01,66.2,42,75,12.66,AU,14-01-2021 11:50:22
vaini,-21.2,-175.2,86,86,86,74,75,11.5,TO,14-01-2021 11:50:23
jamestown,42.097,-79.2353,34.68,36,33.8,75,1,10.36,US,14-01-2021 11:50:25
constitucion,-35.3333,-72.4167,54.7,54.7,54.7,75,0,12.88,CL,14-01-2021 11:50:26
carutapera,-1.195,-46.02,78.4,78.4,78.4,82,86,7.87,BR,14-01-2021 11:50:27
isangel,-19.55,169.2667,86,86,86,84,75,8.05,VU,14-01-2021 11:50:28
ahipara,-35.1667,173.1667,74.34,74.34,74.34,58,3,5.75,NZ,14-01-2021 11:50:29
avera,33.194,-82.5271,43.12,46.4,41,87,40,5.53,US,14-01-2021 11:50:30
bethel,41.3712,-73.414,31.77,34,28,80,75,4.59,US,14-01-2021 11:50:33
praia,14.9215,-23.5087,69.8,69.8,69.8,73,75,21.85,CV,14-01-2021 11:50:36
lata,40.1629,-8.3327,41.13,46.4,37.99,87,75,5.75,PT,14-01-2021 11:50:37
thompson,55.7435,-97.8558,28.4,28.4,28.4,100,90,2.3,CA,14-01-2021 11:49:16
victoria,22.2855,114.1577,56.52,57.99,53.01,61,39,6.42,HK,14-01-2021 11:50:11
longyearbyen,78.2186,15.6401,17.6,17.6,17.6,79,75,11.5,SJ,14-01-2021 11:50:41
hasaki,35.7333,140.8333,42.08,43,39.2,61,20,4.61,JP,14-01-2021 11:50:42
mpika,-11.8343,31.4529,62.47,62.47,62.47,97,100,5.03,ZM,14-01-2021 11:50:43
gorontalo,0.5412,123.0595,85.69,85.69,85.69,70,100,1.5,ID,14-01-2021 11:50:47
bredasdorp,-34.5322,20.0403,68,68,68,88,100,9.22,ZA,14-01-2021 11:50:48
hilo,19.7297,-155.09,75.61,80.6,71.01,61,75,6.91,US,14-01-2021 11:46:06
cap-aux-meules,47.3821,-61.8597,28.4,28.4,28.4,86,100,5.75,CA,14-01-2021 11:50:52
solnechnyy,50.7214,136.6319,-5.67,-5.67,-5.67,85,100,6.33,RU,14-01-2021 11:50:55
atambua,-9.1061,124.8925,83.77,83.77,83.77,69,100,0.72,ID,14-01-2021 11:50:56
bousso,10.4795,16.7117,67.26,67.26,67.26,23,71,6.53,TD,14-01-2021 11:50:57
mabaruma,8.2,-59.7833,70.63,70.63,70.63,92,54,2.84,GY,14-01-2021 11:50:59
codrington,-38.2667,141.9667,65.75,65.75,65.75,60,93,9.8,AU,14-01-2021 11:51:00
albany,42.6001,-73.9662,30.97,34,27,71,100,2.46,US,14-01-2021 11:51:02
norman wells,65.282,-126.8329,3.2,3.2,3.2,85,90,16.11,CA,14-01-2021 11:51:04
upernavik,72.7868,-56.1549,10.6,10.6,10.6,96,100,17.54,GL,14-01-2021 11:51:05
port hedland,-20.3167,118.5667,98.6,98.6,98.6,41,0,9.22,AU,14-01-2021 11:51:06
cherskiy,68.75,161.3,-21.95,-21.95,-21.95,87,100,4.5,RU,14-01-2021 11:51:07
awjilah,29.1081,21.2869,56.16,56.16,56.16,58,93,18.34,LY,14-01-2021 11:51:08
guerrero negro,27.9769,-114.0611,62.06,62.06,62.06,44,0,13.87,MX,14-01-2021 11:51:09
trujillo,-8.116,-79.03,71.67,71.67,71.67,79,100,6.93,PE,14-01-2021 11:51:10
gouyave,12.1646,-61.7296,78.8,78.8,78.8,78,40,6.91,GD,14-01-2021 11:51:12
port blair,11.6667,92.75,78.08,78.08,78.08,73,0,8.88,IN,14-01-2021 11:51:13
naze,28.3667,129.4833,59,59,59,58,40,6.91,JP,14-01-2021 11:51:14
praia da vitoria,38.7333,-27.0667,60.46,60.8,60.01,94,75,10.63,PT,14-01-2021 11:51:15
qaanaaq,77.484,-69.3632,-2.74,-2.74,-2.74,79,0,3.78,GL,14-01-2021 11:51:17
kaitangata,-46.2817,169.8464,64.99,64.99,64.99,78,31,18.01,NZ,14-01-2021 11:51:18
olafsvik,64.8945,-23.7142,40.41,40.41,40.41,82,2,16.6,IS,14-01-2021 11:51:20
doha,25.2867,51.5333,56.57,59,51.8,77,0,3.44,QA,14-01-2021 11:48:34
kapaa,22.0752,-159.319,79.12,80.6,78.01,69,1,10.36,US,14-01-2021 11:51:22
khatanga,71.9667,102.5,-33.5,-33.5,-33.5,82,100,13.02,RU,14-01-2021 11:51:23
saskylakh,71.9167,114.0833,-44.95,-44.95,-44.95,76,66,10,RU,14-01-2021 11:51:24
matagami,49.7502,-77.6328,28.4,28.4,28.4,100,90,3.44,CA,14-01-2021 11:51:25
taksimo,56.3444,114.8794,-29,-29,-29,72,83,0.67,RU,14-01-2021 11:51:26
smithers,54.7804,-127.1743,28.4,28.4,28.4,74,40,2.3,CA,14-01-2021 11:51:01
taoudenni,22.6783,-3.9836,59.11,59.11,59.11,32,0,14.83,ML,14-01-2021 11:51:28
hithadhoo,-0.6,73.0833,81.95,81.95,81.95,74,76,21.7,MV,14-01-2021 11:51:30
kodiak,57.79,-152.4072,35.6,35.6,35.6,80,1,5.75,US,14-01-2021 11:51:31
mar del plata,-38.0023,-57.5575,62.89,64,62.01,63,0,11.5,AR,14-01-2021 11:49:19
ust-kuyga,70.0167,135.6,-41.62,-41.62,-41.62,77,11,1.3,RU,14-01-2021 11:51:34
chokurdakh,70.6333,147.9167,-29.43,-29.43,-29.43,85,100,6.02,RU,14-01-2021 11:51:36
hamilton,39.1834,-84.5333,41.16,42.01,39.99,60,90,9.22,US,14-01-2021 11:51:37
yellowknife,62.456,-114.3525,13.46,14,12.99,92,75,12.66,CA,14-01-2021 11:50:53
barrow,71.2906,-156.7887,-7.6,-7.6,-7.6,84,1,16.11,US,14-01-2021 11:51:39
hofn,64.2539,-15.2082,39.94,39.94,39.94,93,100,16.87,IS,14-01-2021 11:51:40
severo-yeniseyskiy,60.3725,93.0408,-15.23,-15.23,-15.23,90,100,11.01,RU,14-01-2021 11:51:41
new norfolk,-42.7826,147.0587,67.42,71.01,64,32,30,8.99,AU,14-01-2021 11:51:42
romitan,39.9343,64.3814,30.2,30.2,30.2,80,0,6.91,UZ,14-01-2021 11:51:43
port lincoln,-34.7333,135.8667,63.84,63.84,63.84,57,65,11.41,AU,14-01-2021 11:51:45
chuy,-33.6971,-53.4616,63.34,63.34,63.34,63,0,9.89,UY,14-01-2021 11:51:46
porto empedocle,37.2934,13.5264,48.99,48.99,48.99,96,0,4,IT,14-01-2021 11:51:47
lompoc,34.6391,-120.4579,62.28,64.99,60.8,67,1,10.36,US,14-01-2021 11:51:48
namibe,-15.1961,12.1522,71.89,71.89,71.89,70,100,3.15,AO,14-01-2021 11:51:49
tucuman,-26.8241,-65.2226,73.4,73.4,73.4,88,90,2.39,AR,14-01-2021 11:51:50
copiapo,-27.3667,-70.3333,59,59,59,77,75,14.97,CL,14-01-2021 11:51:51
provideniya,64.3833,-173.3,5,5,5,72,75,6.71,RU,14-01-2021 11:51:52
chengde,40.9725,117.9361,16.92,16.92,16.92,92,97,2.51,CN,14-01-2021 11:51:54
sungaipenuh,-2.0833,101.3833,67.51,67.51,67.51,87,99,3,ID,14-01-2021 11:51:55
linshui,36.4247,114.2047,35.01,35.01,35.01,68,0,5.46,CN,14-01-2021 11:51:56
saint-philippe,-21.3585,55.7679,72.7,78.8,69.01,89,90,2.3,RE,14-01-2021 11:51:57
sidney,-33.8679,151.2073,85.73,87.01,84.2,58,0,10.36,AU,14-01-2021 11:49:37
kamenka,51.3223,42.7678,33.73,33.73,33.73,98,100,24.56,RU,14-01-2021 11:51:59
spornoye,50.8448,37.2913,21.2,21.2,21.2,93,90,13.42,RU,14-01-2021 11:52:01
portobelo,9.55,-79.65,74.12,79,66,99,100,11.34,PA,14-01-2021 11:52:02
east london,-33.0153,27.9116,72.9,72.9,72.9,92,100,14.32,ZA,14-01-2021 11:52:03
deputatskiy,69.3,139.9,-36.69,-36.69,-36.69,81,79,1.48,RU,14-01-2021 11:52:04
quatre cocos,-20.2078,57.7625,77,77,77,88,40,5.75,MU,14-01-2021 11:52:05
butaritari,3.0707,172.7902,81.52,81.52,81.52,78,5,19.82,KI,14-01-2021 11:52:07
sabha,27.0377,14.4283,47.46,47.46,47.46,50,100,6.46,LY,14-01-2021 11:52:08
castro,-24.7911,-50.0119,65.16,65.16,65.16,94,98,9.26,BR,14-01-2021 11:52:10
rockland,41.1668,-74.0496,31.64,35.01,28,79,58,3.78,US,14-01-2021 11:52:11
sao filipe,14.8961,-24.4956,71.46,71.46,71.46,72,100,12.15,CV,14-01-2021 11:52:12
dingle,10.9995,122.6711,80.1,80.1,80.1,84,42,12.64,PH,14-01-2021 11:52:13
te anau,-45.4167,167.7167,74.23,74.23,74.23,44,1,4.25,NZ,14-01-2021 11:52:15
kavaratti,10.5669,72.642,79.32,79.32,79.32,74,100,6.08,IN,14-01-2021 11:52:16
igarka,67.4667,86.5833,-26.48,-26.48,-26.48,83,12,12.24,RU,14-01-2021 11:52:17
bandarbeyla,9.4942,50.8122,73.53,73.53,73.53,76,99,21.65,SO,14-01-2021 11:52:18
cairns,-16.9167,145.7667,80.8,81,80.6,89,75,11.5,AU,14-01-2021 11:52:19
anadyr,64.75,177.4833,-5.8,-5.8,-5.8,77,40,8.95,RU,14-01-2021 11:52:20
west mifflin,40.3634,-79.8664,39.74,41,39,56,1,10.36,US,14-01-2021 11:47:36
nikolskoye,59.7035,30.7861,4.87,6.8,1.99,78,0,11.18,RU,14-01-2021 11:52:23
dikson,73.5069,80.5464,-29.02,-29.02,-29.02,85,0,7.14,RU,14-01-2021 11:52:25
atuona,-9.8,-139.0333,77.94,77.94,77.94,76,29,14.52,PF,14-01-2021 11:52:26
antanifotsy,-19.65,47.3167,59.27,59.27,59.27,90,0,2.08,MG,14-01-2021 11:52:27
haines junction,60.7522,-137.5108,8.6,8.6,8.6,92,44,3.44,CA,14-01-2021 11:52:28
bathsheba,13.2167,-59.5167,78.8,78.8,78.8,73,40,18.41,BB,14-01-2021 11:52:29
tiksi,71.6872,128.8694,-31.25,-31.25,-31.25,82,100,3,RU,14-01-2021 11:52:31
hare bay,48.8499,-54.0148,26.4,26.6,26.01,93,100,2.3,CA,14-01-2021 11:52:32
san cristobal,7.7669,-72.225,63.82,63.82,63.82,82,88,2.17,VE,14-01-2021 11:50:08
hervey bay,-25.2986,152.8535,84.99,84.99,84.99,56,2,5.01,AU,14-01-2021 11:52:35
itaituba,-4.2761,-55.9836,73.98,73.98,73.98,96,91,0.76,BR,14-01-2021 11:52:36
hobart,-42.8794,147.3294,67.93,71.01,66.2,42,75,12.66,AU,14-01-2021 11:52:37
mnogovershinnyy,53.9353,139.9242,-13.74,-13.74,-13.74,88,100,3.69,RU,14-01-2021 11:52:38
henties bay,-22.116,14.2845,70,70,70,85,100,2.01,NA,14-01-2021 11:52:39
kysyl-syr,63.8986,122.7617,-36.11,-36.11,-36.11,82,99,7.49,RU,14-01-2021 11:52:40
coos bay,43.3665,-124.2179,54.16,55.4,52,82,1,4.61,US,14-01-2021 11:52:41
monte azul,-15.155,-42.8747,72.05,72.05,72.05,72,0,6.71,BR,14-01-2021 11:52:42
yepocapa,14.5042,-90.9569,65.93,84.2,57,72,40,18.41,GT,14-01-2021 11:52:43
samarai,-10.6167,150.6667,84.94,84.94,84.94,74,100,7.14,PG,14-01-2021 11:52:44
ponta do sol,32.6667,-17.1,48.42,53.01,42.01,55,99,5.01,PT,14-01-2021 11:52:45
maniitsoq,65.4167,-52.9,22.44,22.44,22.44,96,100,10.31,GL,14-01-2021 11:52:46
coihaique,-45.5752,-72.0662,66.2,66.2,66.2,45,0,5.75,CL,14-01-2021 11:52:47
kalabo,-14.97,22.6814,67.62,67.62,67.62,95,100,2.48,ZM,14-01-2021 11:52:49
katherine,-14.4667,132.2667,87.8,87.8,87.8,62,99,5.75,AU,14-01-2021 11:52:51
port augusta,-32.5,137.7667,73.15,75,68,60,0,12.66,AU,14-01-2021 11:52:52
berlevag,70.8578,29.0864,23.13,23.13,23.13,95,100,25.37,NO,14-01-2021 11:52:53
santa cruz del norte,23.1539,-81.9236,71.98,73.4,71.01,94,40,9.22,CU,14-01-2021 11:52:54
grindavik,63.8424,-22.4338,39.2,39.2,39.2,87,20,13.8,IS,14-01-2021 11:52:57
wuwei,37.9281,102.6414,24.91,24.91,24.91,67,0,1.66,CN,14-01-2021 11:52:59
toamasina,-18.1667,49.3833,75.2,75.2,75.2,94,20,3.2,MG,14-01-2021 11:53:01
half moon bay,37.4636,-122.4286,61.12,64.4,57,88,1,10.36,US,14-01-2021 11:53:03
luderitz,-26.6481,15.1594,64.96,64.96,64.96,89,90,6.38,NA,14-01-2021 11:53:04
dhangadhi,28.7079,80.5961,48.52,48.52,48.52,66,0,1.39,NP,14-01-2021 11:53:05
catio,11.2833,-15.25,71.19,71.19,71.19,74,0,5.1,GW,14-01-2021 11:53:06
biryusinsk,55.9634,97.8235,-5.3,-5.3,-5.3,88,100,11.16,RU,14-01-2021 11:53:07
north bend,43.4065,-124.2243,54.23,55.4,52,82,1,4.61,US,14-01-2021 11:53:09
tromso,69.6496,18.957,25.25,26.6,24.01,68,75,19.57,NO,14-01-2021 11:53:10
marawi,7.9986,124.2928,76.87,76.87,76.87,79,100,1.45,PH,14-01-2021 11:53:11
ilulissat,69.2167,-51.1,24.8,24.8,24.8,80,90,14.97,GL,14-01-2021 11:53:12
san quintin,30.4833,-115.95,62.01,62.01,62.01,42,0,6.76,MX,14-01-2021 11:53:13
sillamae,59.3997,27.7547,10.08,10.08,10.08,95,99,11.16,EE,14-01-2021 11:53:14
luwuk,-0.9516,122.7875,86.45,86.45,86.45,62,91,1.36,ID,14-01-2021 11:53:16
neuquen,-38.9516,-68.0591,78.8,78.8,78.8,53,40,14.97,AR,14-01-2021 11:49:15
ilam,26.9167,87.9167,47.05,47.05,47.05,71,0,3.38,NP,14-01-2021 11:53:18
segezha,63.7415,34.3222,-8.07,-8.07,-8.07,93,99,3.85,RU,14-01-2021 11:53:19
tuktoyaktuk,69.4541,-133.0374,-16.6,-16.6,-16.6,76,75,3.27,CA,14-01-2021 11:50:58
suicheng,33.8963,117.9331,42.39,42.39,42.39,71,0,5.28,CN,14-01-2021 11:53:23
askino,56.0901,56.5783,-4.45,-4.45,-4.45,90,82,6.89,RU,14-01-2021 11:53:24
mahebourg,-20.4081,57.7,77,77,77,88,40,5.75,MU,14-01-2021 11:53:25
sarh,9.1429,18.3923,68,68,68,49,0,5.37,TD,14-01-2021 11:53:26
kahama,-3.8333,32.6,63.95,63.95,63.95,96,91,2.64,TZ,14-01-2021 11:53:27
yulara,-25.2406,130.9889,95,95,95,17,0,17.27,AU,14-01-2021 11:53:28
thinadhoo,0.5333,72.9333,82.04,82.04,82.04,73,19,19.75,MV,14-01-2021 11:50:59
pudozh,61.8099,36.5345,-19.19,-19.19,-19.19,86,0,6.87,RU,14-01-2021 11:53:30
camacupa,-12.0167,17.4833,60.76,60.76,60.76,86,100,6.22,AO,14-01-2021 11:53:32
lobva,59.1854,60.5185,-10.66,-10.66,-10.66,86,0,4.18,RU,14-01-2021 11:53:33
pisco,-13.7,-76.2167,69.46,69.8,69.01,83,0,20.71,PE,14-01-2021 11:53:34
makat,47.6469,53.3463,18.5,18.5,18.5,95,100,29.04,KZ,14-01-2021 11:53:35
pangnirtung,66.1451,-65.7125,-7.55,-7.55,-7.55,75,96,0.36,CA,14-01-2021 11:53:36
ahuimanu,21.4447,-157.8378,80.37,82.4,78.01,57,75,10.36,US,14-01-2021 11:53:37
iqaluit,63.7506,-68.5145,-13,-13,-13,70,20,4.61,CA,14-01-2021 11:53:40
mountain home,43.133,-115.6912,42.8,42.8,42.8,52,1,10.36,US,14-01-2021 11:53:42
elko,41.0002,-115.5012,53.6,53.6,53.6,43,1,16.11,US,14-01-2021 11:53:43
goderich,43.7501,-81.7165,35.6,35.6,35.6,87,100,9.22,CA,14-01-2021 11:50:33
saint anthony,45.0205,-93.218,33.93,35.6,32,86,40,4.61,US,14-01-2021 11:53:45
sao felix do xingu,-6.6447,-51.995,72.5,72.5,72.5,93,30,1.52,BR,14-01-2021 11:52:19
asopos,36.7333,22.8667,48.43,48.43,48.43,72,0,8.66,GR,14-01-2021 11:53:47
whitley bay,55.0397,-1.4471,32.76,33.01,32,93,75,1.14,GB,14-01-2021 11:49:24
airai,-8.9266,125.4092,72.97,72.97,72.97,81,100,1.63,TL,14-01-2021 11:53:50
port elizabeth,-33.918,25.5701,69.8,69.8,69.8,88,90,10.36,ZA,14-01-2021 11:53:51
santa rosa,14.3122,121.1114,78.91,80.01,78.01,73,75,2.3,PH,14-01-2021 11:53:52
san patricio,28.017,-97.5169,51.01,53.6,48,82,1,9.22,US,14-01-2021 11:53:53
marzuq,14.4,46.4667,51.08,51.08,51.08,47,0,3,YE,14-01-2021 11:53:54
lucapa,-8.4192,20.7447,64.96,64.96,64.96,98,100,2.3,AO,14-01-2021 11:53:55
mezhdurechensk,53.6942,88.0603,-6.57,-6.57,-6.57,88,100,4.18,RU,14-01-2021 11:53:56
beloha,-25.1667,45.05,73.31,73.31,73.31,96,12,6.2,MG,14-01-2021 11:53:57
kavieng,-2.5744,150.7967,85.23,85.23,85.23,69,24,13.33,PG,14-01-2021 11:53:58
mangaluru,12.8667,74.8833,73.4,73.4,73.4,78,20,5.53,IN,14-01-2021 11:54:00
bengkulu,-3.8004,102.2655,77.92,77.92,77.92,77,100,3.96,ID,14-01-2021 11:54:01
mahibadhoo,3.7833,72.9667,80.94,80.94,80.94,80,100,12.84,MV,14-01-2021 11:54:02
carnarvon,-24.8667,113.6333,78.8,78.8,78.8,89,62,13.8,AU,14-01-2021 11:54:03
fairbanks,64.8378,-147.7164,-5.8,-5.8,-5.8,77,40,2.84,US,14-01-2021 11:52:37
porto velho,-8.7619,-63.9039,75.2,75.2,75.2,94,75,8.05,BR,14-01-2021 11:53:13
gamba,-2.65,10,73.62,73.62,73.62,91,92,4.12,GA,14-01-2021 11:54:10
sinnamary,5.3833,-52.95,77.52,77.52,77.52,85,90,13.87,GF,14-01-2021 11:54:11
evensk,61.95,159.2333,-17.3,-17.3,-17.3,74,87,4.47,RU,14-01-2021 11:54:12
aklavik,68.2191,-135.0107,-16.6,-16.6,-16.6,76,100,4.09,CA,14-01-2021 11:54:13
san lorenzo,-25.3333,-57.5333,86,86,86,74,20,5.75,PY,14-01-2021 11:54:14
dera bugti,29.0307,69.151,53.35,53.35,53.35,32,100,2.53,PK,14-01-2021 11:54:16
saurimo,-9.6608,20.3916,63.27,63.27,63.27,94,97,3.56,AO,14-01-2021 11:51:18
cabo san lucas,22.8909,-109.9124,69.75,71.6,68,43,40,13.8,MX,14-01-2021 11:54:18
augustow,53.8432,22.9798,26.04,26.04,26.04,98,100,6.17,PL,14-01-2021 11:54:19
morant bay,17.8815,-76.4093,76.68,82.4,72,65,20,10.36,JM,14-01-2021 11:54:20
america dourada,-11.4553,-41.4361,70.39,70.39,70.39,81,6,8.39,BR,14-01-2021 11:54:21
ancud,-41.8697,-73.8203,57.2,57.2,57.2,67,0,4.61,CL,14-01-2021 11:54:22
mandalgarh,25.2,75.1,51.08,51.08,51.08,41,1,2.08,IN,14-01-2021 11:54:23
tutoia,-2.7619,-42.2744,79.59,79.59,79.59,81,100,12.62,BR,14-01-2021 11:54:24
la gomera,14.0833,-91.05,84.2,84.2,84.2,74,20,5.41,GT,14-01-2021 11:54:25
high level,58.5169,-117.136,32,32,32,64,75,11.5,CA,14-01-2021 11:54:26
sulangan,11.1373,123.7228,79.66,79.66,79.66,87,100,15.05,PH,14-01-2021 11:54:28
barsovo,61.1667,73.1667,-4,-4,-4,84,0,15.66,RU,14-01-2021 11:54:31
laguna,38.421,-121.4238,63.07,66.2,61,68,1,9.22,US,14-01-2021 11:54:32
clyde river,70.4692,-68.5914,-9.4,-9.4,-9.4,92,40,12.66,CA,14-01-2021 11:54:33
pierre,44.3683,-100.351,44.6,44.6,44.6,65,90,17.87,US,14-01-2021 11:51:28
cayenne,4.9333,-52.3333,78.8,78.8,78.8,89,75,6.91,GF,14-01-2021 11:54:35
cintalapa,16.6951,-93.7272,61.99,61.99,61.99,91,83,5.59,MX,14-01-2021 11:54:36
russell,32.3502,-85.1999,43.14,48.2,41,65,75,4.5,US,14-01-2021 11:54:37
tweed,44.4751,-77.3162,34.65,35.01,34,95,100,3,CA,14-01-2021 11:54:38
yeppoon,-23.1333,150.7333,84.2,84.2,84.2,48,40,10.36,AU,14-01-2021 11:54:39
umea,63.8284,20.2597,4.55,5,3.99,85,90,12.66,SE,14-01-2021 11:54:40
zhigansk,66.7697,123.3711,-40.68,-40.68,-40.68,80,93,11.7,RU,14-01-2021 11:54:42
wynyard,-41,145.7167,66.99,66.99,66.99,54,21,11.01,AU,14-01-2021 11:54:43
abu samrah,35.3029,37.1841,52.07,52.07,52.07,77,0,14.52,SY,14-01-2021 11:54:44
mareeba,-17,145.4333,80.1,81,78.01,85,65,5.99,AU,14-01-2021 11:54:45
riyadh,24.6877,46.7219,48,50,44.6,29,0,3.62,SA,14-01-2021 11:49:58
saldanha,-33.0117,17.9442,73.4,73.4,73.4,64,0,3.44,ZA,14-01-2021 11:54:47
shimanovsk,52,127.7,-17.37,-17.37,-17.37,85,16,6.73,RU,14-01-2021 11:54:48
kalamare,-22.9337,26.5703,70.2,70.2,70.2,76,2,13.11,BW,14-01-2021 11:54:51
male,4.1748,73.5089,82.4,82.4,82.4,78,75,8.05,MV,14-01-2021 11:54:54
santa cruz de la palma,28.6835,-17.7642,59.04,62.6,55,63,75,9.22,ES,14-01-2021 11:54:57
alice springs,-23.7,133.8833,96.8,96.8,96.8,19,0,6.91,AU,14-01-2021 11:54:58
medea,36.2642,2.7539,42.8,42.8,42.8,100,20,3.44,DZ,14-01-2021 11:55:00
esna,25.2934,32.554,62.6,62.6,62.6,59,0,9.22,EG,14-01-2021 11:55:02
vasilsursk,56.1275,46.0072,-6.07,-6.07,-6.07,92,100,12.15,RU,14-01-2021 11:55:03
shinpokh,34.3292,71.1782,44.6,44.6,44.6,70,40,4.61,PK,14-01-2021 11:55:06
gravdal,68.1214,13.5031,31.33,31.33,31.33,95,39,6.85,NO,14-01-2021 11:55:07
vicuna,-30.0319,-70.7081,71.01,71.01,71.01,44,0,1.05,CL,14-01-2021 11:55:08
byron bay,-28.65,153.6167,79.2,80.6,78.01,61,90,5.75,AU,14-01-2021 11:55:09
surt,31.2089,16.5887,57.61,57.61,57.61,71,39,22.21,LY,14-01-2021 11:55:10
corn island,12.1694,-83.0418,79.79,79.79,79.79,79,98,15.17,NI,14-01-2021 11:55:11
mehran,33.1222,46.1646,42.8,42.8,42.8,26,0,6.91,IR,14-01-2021 11:55:15
campo maior,-4.8278,-42.1686,75.61,75.61,75.61,90,100,5.14,BR,14-01-2021 11:55:16
litovko,49.2361,135.1742,0.27,0.27,0.27,90,100,4.14,RU,14-01-2021 11:55:17
honningsvag,70.9821,25.9704,34.11,34.11,34.11,91,100,18.92,NO,14-01-2021 11:55:18
mecca,21.4267,39.8261,71.04,71.04,71.04,70,0,3.56,SA,14-01-2021 11:51:01
salalah,17.0151,54.0924,71.6,71.6,71.6,30,0,13.8,OM,14-01-2021 11:55:21
belaya gora,68.5333,146.4167,-36.02,-36.02,-36.02,82,100,3.04,RU,14-01-2021 11:55:24
caravelas,-17.7125,-39.2481,75.24,75.24,75.24,83,0,5.26,BR,14-01-2021 11:55:26
klaksvik,62.2266,-6.589,39.2,39.2,39.2,81,75,23.02,FO,14-01-2021 11:55:27
otjiwarongo,-20.4637,16.6477,66.42,66.42,66.42,87,100,7.85,NA,14-01-2021 11:55:29
abdulino,53.7,53.6667,-0.74,-0.74,-0.74,90,100,15.66,RU,14-01-2021 11:55:30
bathurst,-33.4166,149.5806,90,90,90,31,0,5.99,AU,14-01-2021 11:55:31
corrales,35.2378,-106.6067,47.1,51.8,42.8,24,1,8.05,US,14-01-2021 11:55:32
srandakan,-7.9386,110.2506,81.39,81.39,81.39,74,100,4.29,ID,14-01-2021 11:55:33
ribeira grande,38.5167,-28.7,62.06,62.06,62.06,85,100,18.86,PT,14-01-2021 11:55:34
nanakuli,21.3906,-158.1547,81.79,82.4,80.6,57,40,12.66,US,14-01-2021 11:55:35
jining,35.405,116.5814,38.48,38.48,38.48,75,0,11.61,CN,14-01-2021 11:55:36
tilichiki,60.4667,166.1,-23.06,-23.06,-23.06,84,0,7.83,RU,14-01-2021 11:55:37
san rafael,-34.6177,-68.3301,75.6,75.6,75.6,57,1,13.29,AR,14-01-2021 11:55:40
shimoda,34.6667,138.95,50.9,51.8,50,58,20,5.75,JP,14-01-2021 11:55:41
zaysan,47.4667,84.8667,-3.17,-3.17,-3.17,91,100,1.7,KZ,14-01-2021 11:55:44
najran,17.4924,44.1277,50,50,50,50,0,1.03,SA,14-01-2021 11:55:45
los llanos de aridane,28.6585,-17.9182,57.99,62.6,55,63,75,9.22,ES,14-01-2021 11:55:46
chumphon,10.3333,98.8333,72.27,75,69.8,94,0,3.44,TH,14-01-2021 11:55:19
ocos,14.5094,-92.1933,82.4,82.4,82.4,78,20,4.85,GT,14-01-2021 11:55:48
leh,34.1667,77.5833,3.49,3.49,3.49,26,0,1.3,IN,14-01-2021 11:55:49
chernyshevskiy,63.0128,112.4714,-20.79,-20.79,-20.79,88,100,7.2,RU,14-01-2021 11:55:50
college,64.8569,-147.8028,-5.8,-5.8,-5.8,77,40,2.95,US,14-01-2021 11:55:06
macusani,-14.0833,-70.4333,41.02,41.02,41.02,81,100,1.39,PE,14-01-2021 11:55:52
inhambane,-23.865,35.3833,77.43,77.43,77.43,88,0,5.84,MZ,14-01-2021 11:51:02
atar,20.5169,-13.0499,61.03,61.03,61.03,29,63,12.68,MR,14-01-2021 11:55:56
brae,60.3964,-1.353,37.4,37.4,37.4,70,40,16.11,GB,14-01-2021 11:55:57
kovdor,67.5662,30.4758,-8.95,-8.95,-8.95,89,100,3.98,RU,14-01-2021 11:55:58
iaciara,-14.0958,-46.6317,71.31,71.31,71.31,87,33,2.01,BR,14-01-2021 11:55:59
isiro,2.7739,27.616,69.06,69.06,69.06,52,94,2.48,CD,14-01-2021 11:56:00
havre-saint-pierre,50.2334,-63.5986,17.6,17.6,17.6,86,90,4.61,CA,14-01-2021 11:56:01
zhangjiakou,40.81,114.8794,18.21,18.21,18.21,85,100,5.46,CN,14-01-2021 11:56:02
kirkland lake,48.1446,-80.0377,30.2,30.2,30.2,93,93,4.74,CA,14-01-2021 11:51:15
faanui,-16.4833,-151.75,81.61,81.61,81.61,76,100,16.53,PF,14-01-2021 11:56:05
dickinson,29.4608,-95.0513,49.66,52,48,62,1,9.22,US,14-01-2021 11:56:06
coihueco,-36.6167,-71.8333,65.16,75.2,55,25,0,11.5,CL,14-01-2021 11:56:08
luena,-11.7833,19.9167,62.98,62.98,62.98,97,100,4.18,AO,14-01-2021 11:56:09
vostok,46.4856,135.8833,-0.6,-0.6,-0.6,90,100,5.91,RU,14-01-2021 11:56:10
torbay,47.6666,-52.7314,28.33,30,26.6,93,90,3.44,CA,14-01-2021 11:56:11
buala,-8.145,159.5921,85.86,85.86,85.86,66,75,7.34,SB,14-01-2021 11:56:12
mae hong son,19.3003,97.9685,60.8,60.8,60.8,94,40,1.48,TH,14-01-2021 11:56:14
porto santo,33.072,-16.3415,55.4,55.4,55.4,71,20,5.75,PT,14-01-2021 11:51:16
rawson,-43.3002,-65.1023,65.98,65.98,65.98,49,71,21.65,AR,14-01-2021 11:56:16
katsuura,35.1333,140.3,48.65,52,46,61,20,3.44,JP,14-01-2021 11:56:17
cockburn town,21.4612,-71.1419,78.08,78.08,78.08,79,1,18.32,TC,14-01-2021 11:56:18
acarau,-2.8856,-40.12,78.67,78.67,78.67,81,94,12.8,BR,14-01-2021 11:56:19
sorland,67.667,12.6934,35.02,35.02,35.02,85,87,2.15,NO,14-01-2021 11:56:20
okhotsk,59.3833,143.3,-13.58,-13.58,-13.58,79,0,10.49,RU,14-01-2021 11:56:21
darnah,32.767,22.6367,58.12,58.12,58.12,71,34,21.39,LY,14-01-2021 11:52:08
bristol,41.8334,-71.1662,36.1,37,36,71,79,3.53,US,14-01-2021 11:54:47
tselinnoye,53.0833,85.6667,-9.27,-9.27,-9.27,89,100,9.37,RU,14-01-2021 11:56:26
kapit,2.0167,112.9333,75.42,75.42,75.42,91,100,1.61,MY,14-01-2021 11:52:20
bagru,26.8088,75.5423,51.8,51.8,51.8,62,0,3.42,IN,14-01-2021 11:56:28
deniliquin,-35.5333,144.9667,77,77,77,36,0,1.01,AU,14-01-2021 11:56:29
chongwe,-15.3292,28.682,68,68,68,100,0,2.3,ZM,14-01-2021 11:56:30
camocim,-2.9022,-40.8411,78.66,78.66,78.66,82,100,10.83,BR,14-01-2021 11:56:31
santa fe,-31.6333,-60.7,80.01,80.01,80.01,46,0,4,AR,14-01-2021 11:56:32
yumen,40.2833,97.2,21.24,21.24,21.24,69,100,17.43,CN,14-01-2021 11:56:34
la rioja,42.25,-2.5,33.8,33.8,33.8,86,0,9.22,ES,14-01-2021 11:56:35
lorengau,-2.0226,147.2712,85.73,85.73,85.73,66,94,9.15,PG,14-01-2021 11:55:40
lyuban,52.7985,28.0048,19.13,19.13,19.13,98,99,5.48,BY,14-01-2021 11:56:37
hovd,48.0056,91.6419,2.32,2.32,2.32,74,100,7.52,MN,14-01-2021 11:56:39
kinsale,51.7075,-8.5306,49.06,50,48.2,100,75,12.66,IE,14-01-2021 11:56:40
ukiah,39.1502,-123.2078,59.85,62.01,57.99,82,1,2.75,US,14-01-2021 11:56:41
ostrovnoy,68.0531,39.5131,4.01,4.01,4.01,94,75,22.66,RU,14-01-2021 11:56:42
zarand,30.8127,56.564,38.53,38.53,38.53,59,2,0.54,IR,14-01-2021 11:56:43
shahabad,27.65,79.95,43.14,43.14,43.14,61,0,2.8,IN,14-01-2021 11:56:44
chor,25.5167,69.7667,50.5,50.5,50.5,48,0,1.05,PK,14-01-2021 11:56:46
kaukauna,44.278,-88.272,32.59,34,30.99,69,75,3.44,US,14-01-2021 11:56:47
hualmay,-11.0964,-77.6139,70.74,70.74,70.74,84,100,10.22,PE,14-01-2021 11:56:48
vao,-22.6667,167.4833,77.56,77.56,77.56,85,100,18.79,NC,14-01-2021 11:56:49
rorvik,64.8621,11.2373,20.82,20.82,20.82,90,0,10.04,NO,14-01-2021 11:56:50
tuatapere,-46.1333,167.6833,66.6,66.6,66.6,66,29,9.53,NZ,14-01-2021 11:56:51
tupik,54.4253,119.9327,-26.57,-26.57,-26.57,81,57,1.19,RU,14-01-2021 11:56:52
adrar,20.5022,-10.0711,60.66,60.66,60.66,28,0,14.32,MR,14-01-2021 11:56:53
semnan,35.5729,53.3971,38.71,38.71,38.71,66,0,1.92,IR,14-01-2021 11:56:54
stony point,41.2295,-73.9871,31.87,34,30,79,52,3.2,US,14-01-2021 11:52:03
port moresby,-9.4431,147.1797,84.2,84.2,84.2,79,20,5.75,PG,14-01-2021 11:56:57
oktyabrskiy,54.4815,53.471,-1.14,-1.14,-1.14,90,100,5.61,RU,14-01-2021 11:56:58
rabaul,-4.1967,152.1721,83.37,83.37,83.37,70,99,5.41,PG,14-01-2021 11:57:00
plouzane,48.3833,-4.6167,49.44,50,48.2,93,90,13.8,FR,14-01-2021 11:57:01
cam ranh,11.9214,109.1591,71.6,71.6,71.6,64,20,6.91,VN,14-01-2021 11:57:02
kununurra,-15.7667,128.7333,87.8,87.8,87.8,79,70,5.75,AU,14-01-2021 11:55:58
eyl,7.9803,49.8164,71.15,71.15,71.15,77,1,18.28,SO,14-01-2021 11:57:04
madimba,-10.4,40.3333,75.2,75.2,75.2,100,40,10.36,TZ,14-01-2021 11:57:05
khandbari,27.3747,87.2039,50.31,50.31,50.31,62,48,1.99,NP,14-01-2021 11:57:06
inirida,3.8653,-67.9239,74.32,74.32,74.32,95,96,2.89,CO,14-01-2021 11:57:07
bulawayo,-20.15,28.5833,65.52,65.52,65.52,89,97,12.37,ZW,14-01-2021 11:57:08
simeykyne,48.3264,39.5337,28.2,28.2,28.2,98,100,8.9,UA,14-01-2021 11:57:09
flinders,-34.5833,150.8552,87.01,87.01,87.01,66,0,3,AU,14-01-2021 11:57:10
lingyuan,41.24,119.4011,11.21,11.21,11.21,90,100,3.71,CN,14-01-2021 11:57:11
misratah,32.3754,15.0925,58.21,58.21,58.21,70,21,20.67,LY,14-01-2021 11:57:13
bartica,6.4,-58.6167,73.4,73.4,73.4,94,20,4.61,GY,14-01-2021 11:57:14
haverfordwest,51.8017,-4.9691,48.49,48.99,48.2,100,90,19.57,GB,14-01-2021 11:57:15
veraval,20.9,70.3667,68.52,68.52,68.52,36,23,7.67,IN,14-01-2021 11:57:17
sitka,57.0531,-135.33,37.4,37.4,37.4,87,90,3.44,US,14-01-2021 11:57:19
huarmey,-10.0681,-78.1522,70.66,70.66,70.66,84,100,7.02,PE,14-01-2021 11:57:20
kangaatsiaq,68.3065,-53.4641,20.08,20.08,20.08,97,99,16.11,GL,14-01-2021 11:57:21
la asuncion,11.0333,-63.8628,76.41,76.41,76.41,87,55,14.03,VE,14-01-2021 11:57:26
ames,42.0347,-93.6199,34.61,37.4,33.8,80,1,5.79,US,14-01-2021 11:55:01
kushima,31.4583,131.2333,43.5,44.6,42.8,87,20,9.22,JP,14-01-2021 11:57:28
yagodnoye,62.55,149.6667,-26.37,-26.37,-26.37,82,84,3.78,RU,14-01-2021 11:57:29
longjiang,47.3303,123.1836,-3.68,-3.68,-3.68,80,0,5.73,CN,14-01-2021 11:57:30
boende,-0.2167,20.8667,73.54,73.54,73.54,81,100,1.72,CD,14-01-2021 11:57:31
indramayu,-6.3264,108.32,77.86,77.86,77.86,84,100,6.35,ID,14-01-2021 11:57:32
dayong,25.0209,118.2898,50,50,50,76,0,4.47,CN,14-01-2021 11:57:35
takapau,-40.0333,176.35,79,79,79,59,0,4,NZ,14-01-2021 11:57:36
bonavista,48.6499,-53.1147,27.52,28.99,26.6,93,100,2.3,CA,14-01-2021 11:57:38
straseni,47.1414,28.6103,28.4,28.4,28.4,93,0,5.75,MD,14-01-2021 11:57:39
laela,-8.5667,32.05,61.2,61.2,61.2,98,100,2.77,TZ,14-01-2021 11:57:41
gitarama,-2.0744,29.7567,59.23,59.23,59.23,97,100,2.21,RW,14-01-2021 11:57:42
kidal,18.4411,1.4078,68.2,68.2,68.2,22,0,8.08,ML,14-01-2021 11:57:44
bagar,28.1874,75.5005,47.82,47.82,47.82,41,0,1.36,IN,14-01-2021 11:57:46
lafayette,30.2335,-92.0668,46.56,46.99,46,57,1,4.61,US,14-01-2021 11:55:38
abonnema,4.7084,6.7931,75.2,75.2,75.2,94,40,3.62,NG,14-01-2021 11:57:48
zhangye,38.9342,100.4517,17.15,17.15,17.15,75,0,2.08,CN,14-01-2021 11:57:49
muros,42.7762,-9.0603,43.59,45,42.01,87,22,1.99,ES,14-01-2021 11:57:50
wairoa,-39.0333,177.3667,73.99,73.99,73.99,68,97,4,NZ,14-01-2021 11:57:53
shelburne,44.0787,-80.2041,31.89,34,28.99,93,90,2.3,CA,14-01-2021 11:57:56
bushehr,28.9684,50.8385,62.2,62.2,62.2,46,0,5.37,IR,14-01-2021 11:57:57
swan river,52.1058,-101.2676,30.2,30.2,30.2,86,100,3.44,CA,14-01-2021 11:57:26
matay,28.419,30.7792,58.8,58.8,58.8,37,100,8.37,EG,14-01-2021 11:57:59
namatanai,-3.6667,152.4333,85.24,85.24,85.24,68,96,10.13,PG,14-01-2021 11:58:01
fortuna,40.5982,-124.1573,56.62,57.99,55,100,90,6.91,US,14-01-2021 11:58:02
tiarei,-17.5333,-149.3333,89.6,89.6,89.6,62,40,4.61,PF,14-01-2021 11:58:03
auki,-8.7676,160.7034,86.77,86.77,86.77,61,92,3.29,SB,14-01-2021 11:58:04
gold coast,-28,153.4333,83.53,86,80.6,54,0,9.22,AU,14-01-2021 11:58:05
aksay,47.26,39.87,33.67,35.01,32,100,75,6.71,RU,14-01-2021 11:58:07
labuhan,-6.8844,112.2051,80.89,80.89,80.89,79,100,9.95,ID,14-01-2021 11:58:09
nago,26.5881,127.9761,59.58,60.8,59,77,90,6.91,JP,14-01-2021 11:58:10
luanda,-8.8368,13.2343,77,77,77,83,0,6.91,AO,14-01-2021 11:53:28
san carlos de bariloche,-41.1456,-71.3082,68,68,68,32,0,16.11,AR,14-01-2021 11:58:12
kudahuvadhoo,2.6708,72.8944,81.9,81.9,81.9,76,98,17.87,MV,14-01-2021 11:58:13
ewa beach,21.3156,-158.0072,81.9,82.4,80.6,57,40,12.66,US,14-01-2021 11:58:15
malanje,-9.5402,16.341,61.86,61.86,61.86,95,100,7.99,AO,14-01-2021 11:58:16
atkinson,42.8384,-71.147,33.94,36,32,73,65,4.36,US,14-01-2021 11:58:17
lyubech,51.7026,30.6569,18.39,18.39,18.39,97,77,4.36,UA,14-01-2021 11:58:18
ozark,37.0209,-93.206,45.12,48.2,42.01,40,1,9.22,US,14-01-2021 11:58:19
nagato,34.3833,131.2,45.45,46.4,42.8,76,20,2.3,JP,14-01-2021 11:58:20
prince rupert,54.3161,-130.3201,42.8,42.8,42.8,70,1,9.22,CA,14-01-2021 11:57:57
yarada,17.65,83.2667,68,68,68,100,100,2.3,IN,14-01-2021 11:58:22
nouadhibou,20.931,-17.0347,60.8,60.8,60.8,72,33,19.57,MR,14-01-2021 11:58:23
la orilla,17.9833,-102.2333,77.05,77.05,77.05,65,100,4.43,MX,14-01-2021 11:58:24
urumqi,43.801,87.6005,10.4,10.4,10.4,79,69,4.47,CN,14-01-2021 11:58:26
brigantine,39.4101,-74.3646,37.76,41,33.01,60,1,5.75,US,14-01-2021 11:58:27
kedrovyy,56.1667,91.8167,-2.2,-2.2,-2.2,71,100,8.95,RU,14-01-2021 11:58:28
mount gambier,-37.8333,140.7667,64.4,64.4,64.4,59,75,12.66,AU,14-01-2021 11:56:17
kailua,21.4022,-157.7394,79.48,82.4,75.99,57,75,10.36,US,14-01-2021 11:58:32
kahului,20.8947,-156.47,80.26,84.2,78.01,51,20,10.36,US,14-01-2021 11:54:33
baykit,61.67,96.37,-4.83,-4.83,-4.83,87,100,7.67,RU,14-01-2021 11:58:35
nome,64.5011,-165.4064,17.6,17.6,17.6,93,90,8.05,US,14-01-2021 11:58:36
padang,-0.9492,100.3543,79.74,79.74,79.74,69,62,4.72,ID,14-01-2021 11:58:37
korla,41.7597,86.1469,17.24,17.24,17.24,82,3,3.51,CN,14-01-2021 11:58:38
alofi,-19.0595,-169.9187,86,86,86,70,75,12.66,NU,14-01-2021 11:58:39
waharoa,-37.7667,175.7667,83.89,87.01,80.01,52,2,11.99,NZ,14-01-2021 11:58:40
palana,59.1167,159.9667,0.52,0.52,0.52,93,98,8.63,RU,14-01-2021 11:58:41
harper,4.375,-7.7169,78.19,78.19,78.19,84,100,5.57,LR,14-01-2021 11:58:42
thunder bay,48.4001,-89.3168,30.13,32,28.4,86,75,3.44,CA,14-01-2021 11:58:43
sri aman,1.2376,111.4621,73.2,73.4,73,94,40,3.44,MY,14-01-2021 11:58:44
west bay,19.3667,-81.4167,77.95,78.8,77,89,20,4.61,KY,14-01-2021 11:58:47
portland,45.5234,-122.6762,47.19,51.01,44.01,74,4,1.14,US,14-01-2021 11:49:53
ilhabela,-23.7781,-45.3581,77.65,77.65,77.65,87,100,5.95,BR,14-01-2021 11:58:51
broken hill,-31.95,141.4333,71.6,71.6,71.6,37,0,16.11,AU,14-01-2021 11:58:53
meulaboh,4.1363,96.1285,76.95,76.95,76.95,78,89,3.11,ID,14-01-2021 11:55:47
rapid valley,44.0625,-103.1463,48.38,51.8,42.01,43,90,42.57,US,14-01-2021 11:58:55
grand gaube,-20.0064,57.6608,77,77,77,82,0,1.01,MU,14-01-2021 11:58:56
novaya igirma,57.1334,103.9112,-13.41,-13.41,-13.41,86,100,9.89,RU,14-01-2021 11:58:57
vila velha,-20.3297,-40.2925,77.31,78.8,75.99,78,20,8.05,BR,14-01-2021 11:58:58
rio claro,-22.4114,-47.5614,71.8,72,71.6,100,0,2.3,BR,14-01-2021 11:59:01
cidreira,-30.1811,-50.2056,70.7,70.7,70.7,74,16,15.3,BR,14-01-2021 11:59:02
koungou,-12.7336,45.2042,80.6,80.6,80.6,83,20,4.61,YT,14-01-2021 11:59:04
kampot,10.6167,104.1833,69.04,69.8,68,88,0,5.37,KH,14-01-2021 11:58:07
puerto colombia,10.9878,-74.9547,78.8,78.8,78.8,83,20,12.66,CO,14-01-2021 11:59:06
naryan-mar,67.6713,53.087,-9.09,-9.09,-9.09,86,91,12.41,RU,14-01-2021 11:59:07
charters towers,-20.1,146.2667,83.71,83.71,83.71,59,98,11.3,AU,14-01-2021 11:59:09
hay river,60.8156,-115.7999,19.4,19.4,19.4,93,100,16.11,CA,14-01-2021 11:59:13
honiara,-9.4333,159.95,86.36,86.36,86.36,62,96,7.61,SB,14-01-2021 11:56:17
launceston,-41.45,147.1667,69.67,71.01,68,49,0,9.22,AU,14-01-2021 11:59:16
dospat,41.65,24.1667,22.91,22.91,22.91,93,100,3.42,BG,14-01-2021 11:59:17
mazara del vallo,37.6641,12.588,53.76,57,48.99,88,20,13.8,IT,14-01-2021 11:59:18
zavodoukovsk,56.5042,66.5515,-21.12,-21.12,-21.12,86,0,4.83,RU,14-01-2021 11:59:21
garmsar,35.2182,52.3409,40.01,40.01,40.01,65,0,1.21,IR,14-01-2021 11:59:22
anta,25.15,76.3,49.8,49.8,49.8,42,19,3.11,IN,14-01-2021 11:59:24
riesi,37.2819,14.0823,42.01,42.01,42.01,86,0,7,IT,14-01-2021 11:59:25
dunedin,-45.8742,170.5036,66.97,66.97,66.97,65,12,9.33,NZ,14-01-2021 11:59:26
loksa,59.5764,25.7214,22.68,24.01,21.2,86,75,14.97,EE,14-01-2021 11:59:27
berbera,10.4396,45.0143,72.75,72.75,72.75,58,27,4.59,SO,14-01-2021 11:59:28
watsonville,36.9102,-121.7569,62.13,64,57,69,100,3.38,US,14-01-2021 11:57:44
irbeyskoye,55.6428,95.4522,-2.99,-2.99,-2.99,88,100,13.44,RU,14-01-2021 11:59:30
biak,-0.9131,122.8766,83.71,83.71,83.71,68,48,0.6,ID,14-01-2021 11:59:32
omsukchan,62.5333,155.8,-34.65,-34.65,-34.65,78,80,3.53,RU,14-01-2021 11:59:33
sao joao da barra,-21.6403,-41.0511,76.39,76.39,76.39,86,0,13.42,BR,14-01-2021 11:59:34
novochernorechenskiy,56.2669,91.0828,-9.06,-9.06,-9.06,90,100,9.66,RU,14-01-2021 11:59:36
keflavik,64.0049,-22.5624,39.15,39.2,39,87,20,13.8,IS,14-01-2021 11:59:37
santa maria,-29.6842,-53.8069,71.6,71.6,71.6,68,40,9.22,BR,14-01-2021 11:59:38
huilong,31.8111,121.655,46,46,46,73,20,1.99,CN,14-01-2021 11:59:39
daru,-9.0763,143.2092,86.61,86.61,86.61,68,100,4.94,PG,14-01-2021 11:59:42
sept-iles,50.2001,-66.3821,22.44,23,21.2,86,100,3.44,CA,14-01-2021 11:59:43
zaozerne,45.1582,33.2787,39.65,39.65,39.65,73,100,8.12,UA,14-01-2021 11:59:45
kapoeta,4.7717,33.5903,80.64,80.64,80.64,31,47,8.63,SS,14-01-2021 11:59:47
yar-sale,66.8333,70.8333,3.88,3.88,3.88,90,100,16.26,RU,14-01-2021 11:56:57
maneromango,-7.1988,38.7848,77,77,77,94,20,3.49,TZ,14-01-2021 11:59:49
whitehorse,60.7161,-135.0538,21.29,24.8,15.01,63,75,13.8,CA,14-01-2021 11:59:50
mana,5.6592,-53.7767,77.29,77.29,77.29,85,100,11.52,GF,14-01-2021 11:59:51
verkhovazhye,60.7472,42.0465,-21.73,-21.73,-21.73,86,19,4.99,RU,14-01-2021 11:59:53
collie,-33.3667,116.15,64,64,64,50,18,3,AU,14-01-2021 11:59:54
kurilsk,45.2333,147.8833,29.93,29.93,29.93,91,100,10.11,RU,14-01-2021 11:59:55
mbuji-mayi,-6.15,23.6,68.58,68.58,68.58,92,100,1.32,CD,14-01-2021 11:59:56
moba,33.2288,105.0179,27.82,27.82,27.82,77,0,4.52,CN,14-01-2021 11:59:57
muroto,33.2833,134.15,41,41,41,75,20,5.75,JP,14-01-2021 11:59:58
verkhnevilyuysk,63.4453,120.3167,-23.53,-23.53,-23.53,85,93,6.08,RU,14-01-2021 11:59:59
dalvik,65.9702,-18.5286,41,41,41,65,90,16.11,IS,14-01-2021 12:00:02
deming,32.2687,-107.7586,57.2,57.2,57.2,10,1,10.36,US,14-01-2021 12:00:15
lagoa formosa,-18.7786,-46.4075,73,73,73,100,100,0.96,BR,14-01-2021 12:00:22
anqing,30.5092,117.0506,46.85,46.85,46.85,53,0,3.58,CN,14-01-2021 12:00:24
vila,42.0304,-8.1588,38.39,42.01,36,100,20,3.44,PT,14-01-2021 12:00:30
tamiahua,21.2667,-97.45,58.57,58.57,58.57,69,35,2.84,MX,14-01-2021 12:00:31
governador valadares,-18.8511,-41.9494,72.03,72.03,72.03,86,8,6.31,BR,14-01-2021 12:00:34
udachnyy,66.4167,112.4,-28.21,-28.21,-28.21,82,100,10.89,RU,14-01-2021 12:00:37
ponta delgada,37.7333,-25.6667,61.41,62.01,60.8,94,75,11.5,PT,14-01-2021 12:00:38
manggar,-2.8833,108.2667,79.05,79.05,79.05,85,100,10.74,ID,14-01-2021 12:00:40
esperance,-33.8667,121.9,62.6,62.6,62.6,51,90,12.66,AU,14-01-2021 12:00:41
suntar,62.1444,117.6319,-13.63,-13.63,-13.63,88,100,7.47,RU,14-01-2021 12:00:42
skibbereen,51.55,-9.2667,48.2,48.2,48.2,100,75,12.66,IE,14-01-2021 12:00:43
waipawa,-41.4122,175.5153,72.25,75.2,68,57,18,16.11,NZ,14-01-2021 12:00:46
baghdad,33.3406,44.4009,58.17,58.17,58.17,35,100,11.27,IQ,14-01-2021 12:00:47
fare,-16.7,-151.0167,81.52,81.52,81.52,75,75,16.4,PF,14-01-2021 12:00:53
pitimbu,-7.4706,-34.8086,78.8,78.8,78.8,83,20,4.61,BR,14-01-2021 12:00:54
poum,-20.2333,164.0167,81.75,81.75,81.75,82,100,15.97,NC,14-01-2021 12:00:56
dondo,-19.6094,34.7431,76.37,76.37,76.37,94,100,1.97,MZ,14-01-2021 12:00:57
