City Name,Latitude,Longitude,Temperature,Max Temp,Min Temp,Humidity,Cloudiness,Wind Speed,Country,Date
hermanus,-34.4187,19.2345,22.22,22.22,22.22,55,45,2.24,ZA,1610284060
klupci,44.5314,19.2519,0.37,1.11,0,100,90,1.54,RS,1610284169
santa fe,-31.6333,-60.7,29.44,29.44,29.44,52,0,0.89,AR,1610283987
nishihara,26.1842,127.7558,12.45,14,11.67,71,75,4.12,JP,1610284172
bambous virieux,-20.3428,57.7575,28.95,29,28.89,79,75,5.66,MU,1610284174
ketchikan,55.3422,-131.6461,8,8,8,93,90,7.72,US,1610284175
that phanom,16.9364,104.7104,18,18,18,59,72,3.09,TH,1610284176
varzea da palma,-17.5981,-44.7308,28.3,28.3,28.3,69,68,1.58,BR,1610284177
lasa,46.6166,10.7002,-0.78,1,-4,46,0,3.6,IT,1610284178
puerto ayora,-0.7393,-90.3518,23.33,23.33,23.33,91,17,0.89,EC,1610284179
upernavik,72.7868,-56.1549,-11.79,-11.79,-11.79,86,26,5.13,GL,1610284180
hobart,-42.8794,147.3294,16.59,17,16.11,77,90,1.54,AU,1610283943
chokurdakh,70.6333,147.9167,-33.52,-33.52,-33.52,86,100,2.79,RU,1610284182
yellowknife,62.456,-114.3525,-18.92,-18.89,-19,84,1,1.03,CA,1610284183
saint-philippe,-21.3585,55.7679,25.3,29,23.33,74,40,8.23,RE,1610284184
cape town,-33.9258,18.4232,22.84,23,22.78,46,20,12.35,ZA,1610283979
bodden town,19.2833,-81.25,24.44,25,23.89,78,75,6.69,KY,1610284186
vardo,70.3705,31.1107,-9,-9,-9,79,75,5.14,NO,1610284187
norman wells,65.282,-126.8329,-14,-14,-14,85,40,4.12,CA,1610284188
ushuaia,-54.8,-68.3,8,8,8,87,75,7.72,AR,1610284117
saskylakh,71.9167,114.0833,-31.34,-31.34,-31.34,83,96,3.54,RU,1610284190
jamestown,42.097,-79.2353,-3.6,-3.33,-4,93,90,3.6,US,1610284191
saint george,37.1041,-113.5841,-1.86,-1.11,-2.22,64,1,1.64,US,1610284193
fare,-16.7,-151.0167,26.89,26.89,26.89,72,91,5.3,PF,1610284194
kaitangata,-46.2817,169.8464,11.67,11.67,11.67,70,100,4.02,NZ,1610284196
zhigansk,66.7697,123.3711,-35.25,-35.25,-35.25,84,100,0.91,RU,1610284197
grand forks,47.9417,-97.4337,-14,-14,-14,100,1,1.93,US,1610284198
bethel,41.3712,-73.414,-4.37,-3.89,-5,68,1,5.14,US,1610284199
pisco,-13.7,-76.2167,21.15,22,20,83,75,1.54,PE,1610284200
san rafael,-34.6177,-68.3301,23.03,23.03,23.03,38,0,4.15,AR,1610284201
fortuna,40.5982,-124.1573,8.6,9.44,7,100,90,3.09,US,1610284202
ust-charyshskaya pristan,52.3934,83.6635,-7.86,-7.86,-7.86,89,100,9.78,RU,1610284203
manzil salim,35.8567,8.4765,14,14,14,62,40,2.06,TN,1610284204
hithadhoo,-0.6,73.0833,27.57,27.57,27.57,72,100,4.47,MV,1610284205
lebu,-37.6167,-73.65,13.65,13.65,13.65,92,55,5.56,CL,1610284206
banda aceh,5.5577,95.3222,26.07,26.07,26.07,83,97,3.76,ID,1610284208
ikwiriri,-7.9562,38.9716,23.44,23.44,23.44,96,100,1.84,TZ,1610284209
moen,69.1304,18.6123,-8,-8,-8,79,75,1.03,NO,1610284211
sao francisco de assis,-29.5503,-55.1311,30.85,30.85,30.85,45,0,1.39,BR,1610284212
carutapera,-1.195,-46.02,28.22,28.22,28.22,75,69,3.81,BR,1610284215
krasnoye,49.9145,24.6134,-1.05,-1,-1.11,86,90,3,UA,1610284216
punta alta,-38.8759,-62.0736,25.36,25.36,25.36,24,19,4.53,AR,1610284022
andros town,24.7,-77.7667,19,19,19,59,75,2.06,BS,1610284218
punta arenas,-53.15,-70.9167,10,10,10,66,40,7.72,CL,1610284098
atuona,-9.8,-139.0333,25.18,25.18,25.18,80,21,7.65,PF,1610284220
mataura,-46.1927,168.8643,12.22,12.22,12.22,75,93,5.81,NZ,1610284221
mogadouro,41.3403,-6.7119,3.33,3.33,3.33,72,100,4.02,PT,1610284222
khatanga,71.9667,102.5,-30.14,-30.14,-30.14,86,100,6.35,RU,1610284223
airai,-8.9266,125.4092,17.97,17.97,17.97,100,100,0.56,TL,1610284224
busselton,-33.65,115.3333,17.57,17.78,17.22,77,18,2.24,AU,1610284225
bathsheba,13.2167,-59.5167,28,28,28,69,40,10.8,BB,1610284226
honiara,-9.4333,159.95,26.52,26.52,26.52,78,100,1.94,SB,1610284227
rikitea,-23.1203,-134.9692,25.64,25.64,25.64,77,100,7.04,PF,1610284228
preobrazheniye,42.9019,133.9064,-14.28,-14.28,-14.28,81,0,3.98,RU,1610284229
buyabod,13.4666,122.0526,24.21,24.21,24.21,78,100,8.67,PH,1610284230
kahului,20.8947,-156.47,21.57,22,21.11,78,40,3.09,US,1610284069
wawa,9.9022,4.4192,35.82,35.82,35.82,11,0,2.19,NG,1610284232
thanh hoa,19.8,105.7667,11.84,11.84,11.84,44,98,1.46,VN,1610284233
carnarvon,-24.8667,113.6333,27,27,27,74,0,12.86,AU,1610284234
avarua,-21.2078,-159.775,25,25,25,88,40,1.03,CK,1610284235
nikolskoye,59.7035,30.7861,-14.41,-12.78,-15.56,85,0,3,RU,1610284237
castro,-24.7911,-50.0119,23.63,23.63,23.63,72,16,1.73,BR,1610284238
jishou,28.3167,109.7167,3.57,3.57,3.57,69,85,1.32,CN,1610284239
flin flon,54.7682,-101.865,-12,-12,-12,92,1,2.57,CA,1610284240
goure,13.9835,10.2704,32.22,32.22,32.22,11,46,4.92,NE,1610284241
beringovskiy,63.05,179.3167,-27.5,-27.5,-27.5,86,85,5.66,RU,1610284243
arraial do cabo,-22.9661,-42.0278,28.42,29,28,74,20,6.17,BR,1610284244
phalaborwa,-23.943,31.1411,31,31,31,58,4,1.03,ZA,1610284245
alice springs,-23.7,133.8833,25.91,27,25,32,0,2.57,AU,1610284246
albany,42.6001,-73.9662,-6.71,-6.11,-7.78,66,73,2.69,US,1610283986
torbay,47.6666,-52.7314,-0.59,0,-1.11,100,90,5.66,CA,1610284248
barrow,71.2906,-156.7887,-16,-16,-16,78,90,2.57,US,1610284250
lima,-12.0432,-77.0282,20.78,21,20.56,88,75,3.09,PE,1610284062
necochea,-38.5473,-58.7368,26.11,26.11,26.11,60,2,6.74,AR,1610284253
new norfolk,-42.7826,147.0587,14.78,16.67,13.33,73,98,0.17,AU,1610284255
geraldton,-28.7667,114.6,22,22,22,73,0,10.29,AU,1610284256
henties bay,-22.116,14.2845,20.86,20.86,20.86,70,8,5.02,NA,1610284257
mahanje,-9.9333,35.3333,27.78,27.78,27.78,58,74,0.19,TZ,1610284259
sao miguel do araguaia,-13.275,-50.1628,26.55,26.55,26.55,78,100,0.59,BR,1610284086
mar del plata,-38.0023,-57.5575,24.72,26,23.89,57,20,6.17,AR,1610284263
vao,-22.6667,167.4833,26.16,26.16,26.16,84,100,2.87,NC,1610284264
lakes entrance,-37.8811,147.981,18.28,19.44,17.22,88,99,2.37,AU,1610284265
thompson,55.7435,-97.8558,-14,-14,-14,92,20,1.54,CA,1610284266
hurghada,27.2574,33.8129,26,26,26,36,0,8.75,EG,1610284027
dunedin,-45.8742,170.5036,12.78,12.78,12.78,73,100,0.45,NZ,1610284043
severo-kurilsk,50.6789,156.125,-6.46,-6.46,-6.46,88,84,10.84,RU,1610284269
oranjestad,12.524,-70.027,27,27,27,78,20,7.72,AW,1610284270
the valley,18.217,-63.0578,26.6,27.22,26,78,20,5.66,AI,1610284271
batemans bay,-35.7167,150.1833,15.11,17.78,12.78,94,0,1.56,AU,1610284272
vaini,-21.2,-175.2,26,26,26,89,40,3.09,TO,1610284273
divnoye,45.9089,43.3547,1.11,1.11,1.11,92,100,2.11,RU,1610284274
tuktoyaktuk,69.4541,-133.0374,-19.6,-19.6,-19.6,92,6,0.94,CA,1610284275
nueva rosita,27.95,-101.2167,6.11,6.11,6.11,99,94,1.34,MX,1610284276
butaritari,3.0707,172.7902,27.21,27.21,27.21,82,77,7.32,KI,1610284277
talnakh,69.4865,88.3972,-28.71,-28.71,-28.71,75,80,0.54,RU,1610284278
te anau,-45.4167,167.7167,9.03,9.03,9.03,87,100,1.51,NZ,1610284279
aden,12.7794,45.0367,24.89,24.89,24.89,69,4,8.05,YE,1610283981
churapcha,62.0025,132.4325,-38.82,-38.82,-38.82,81,100,0.52,RU,1610284281
laramie,41.3114,-105.5911,-14.75,-10,-18,85,90,1.54,US,1610284017
kitgum,3.2783,32.8867,34.11,34.11,34.11,19,65,1.93,UG,1610284283
celestun,20.8667,-90.4,16.97,16.97,16.97,75,3,3.65,MX,1610284284
sioux lookout,50.1001,-91.917,-6,-6,-6,93,90,3.09,CA,1610284285
pevek,69.7008,170.3133,-31.08,-31.08,-31.08,87,100,1.67,RU,1610284286
inongo,-1.95,18.2667,27.27,27.27,27.27,63,36,0.77,CD,1610284287
praia da vitoria,38.7333,-27.0667,13.95,14,13.89,94,75,6.22,PT,1610284289
mirnyy,62.5353,113.9611,-35.19,-35.19,-35.19,84,92,0.94,RU,1610284290
port elizabeth,-33.918,25.5701,22,22,22,60,90,5.66,ZA,1610284291
cap malheureux,-19.9842,57.6142,28.89,28.89,28.89,74,12,3.58,MU,1610284292
vila franca do campo,37.7167,-25.4333,13,13,13,71,20,1.46,PT,1610284293
sobolevo,54.4299,31.8996,-9.55,-9.55,-9.55,97,59,1.9,RU,1610284294
nelson bay,-32.7167,152.15,19.26,20.56,17.78,88,75,2.06,AU,1610284295
constitucion,-35.3333,-72.4167,17.06,17.06,17.06,51,0,0.66,CL,1610284296
waipawa,-41.4122,175.5153,16.39,17,15.56,82,0,6.17,NZ,1610284297
turukhansk,65.8167,87.9833,-27.76,-27.76,-27.76,83,0,2.63,RU,1610284298
makakilo city,21.3469,-158.0858,21.19,23,18,83,75,1.54,US,1610284299
tuatapere,-46.1333,167.6833,12.22,12.22,12.22,75,100,5.81,NZ,1610284300
victoria,22.2855,114.1577,11.99,13.33,7.78,37,100,3.63,HK,1610284218
husavik,66.0449,-17.3389,-7,-7,-7,68,75,2.57,IS,1610284302
ixtapa,20.7,-105.2,20,20,20,88,75,1.54,MX,1610284303
chekhov,55.1431,37.4711,-7.31,-7,-8,86,90,5,RU,1610284304
adrar,20.5022,-10.0711,19.21,19.21,19.21,30,63,8.93,MR,1610284305
chuy,-33.6971,-53.4616,25.99,25.99,25.99,72,50,4.24,UY,1610284306
olafsvik,64.8945,-23.7142,-4.42,-4.42,-4.42,89,0,4.55,IS,1610284307
yeppoon,-23.1333,150.7333,25,25,25,65,75,5.66,AU,1610284143
kapaa,22.0752,-159.319,19.69,20,19.44,100,90,2.44,US,1610284310
biggar,55.6167,-3.5167,5.75,6.67,5,10,99,2.68,GB,1610284312
port augusta,-32.5,137.7667,25.78,26.11,25,47,9,1.54,AU,1610284314
qaanaaq,77.484,-69.3632,-18.72,-18.72,-18.72,75,0,3.04,GL,1610284315
popondetta,-8.7537,148.2534,24.48,24.48,24.48,93,100,1.15,PG,1610284316
faanui,-16.4833,-151.75,26.96,26.96,26.96,71,100,5.21,PF,1610284317
touros,-5.1989,-35.4608,30,30,30,58,40,5.66,BR,1610284319
broome,42.2506,-75.833,-5.3,-3.89,-7.22,86,90,5.66,US,1610284320
fez,34.0372,-4.9998,8,8,8,81,75,9.77,MA,1610284322
uribia,11.7139,-72.266,26.29,26.29,26.29,71,72,8.33,CO,1610284323
ilulissat,69.2167,-51.1,-9,-9,-9,53,75,1.54,GL,1610284325
san ramon,37.7799,-121.978,5.81,7.22,2,87,1,0.75,US,1610284327
kodiak,57.79,-152.4072,5,5,5,87,90,9.77,US,1610284328
grand gaube,-20.0064,57.6608,28.89,28.89,28.89,74,11,3.58,MU,1610284329
narrabri,-30.3167,149.7833,22,22,22,53,75,3.6,AU,1610284330
isangel,-19.55,169.2667,25,25,25,100,90,0.96,VU,1610284332
klaksvik,62.2266,-6.589,-1,-1,-1,80,40,5.14,FO,1610284333
yajalon,17.2333,-92.3333,16,16,16,100,20,0.87,MX,1610284334
san patricio,28.017,-97.5169,12.85,14,11.67,94,90,7.2,US,1610284335
ponta do sol,32.6667,-17.1,11.42,14.44,8.89,71,60,0.89,PT,1610284336
sapa,5.1544,120.3241,28.02,28.02,28.02,74,100,2.77,PH,1610284338
haines junction,60.7522,-137.5108,-9,-9,-9,86,100,1.03,CA,1610284339
ledyard,41.4398,-72.0142,-1.85,-1.67,-2.22,64,1,5.66,US,1610284051
kalmunai,7.4167,81.8167,24.43,24.43,24.43,93,100,3.27,LK,1610284345
bluff,-46.6,168.3333,12.22,12.22,12.22,75,100,5.81,NZ,1610284346
williston,48.147,-103.618,-1.87,-1.67,-2.22,86,8,1.34,US,1610284134
east london,-33.0153,27.9116,23,23,23,78,40,5.66,ZA,1610284106
ahipara,-35.1667,173.1667,17.1,17.1,17.1,83,61,3.96,NZ,1610284350
magway,20.15,94.9167,25.64,25.64,25.64,36,7,0.54,MM,1610284351
provideniya,64.3833,-173.3,-21.67,-21.67,-21.67,82,0,2.74,RU,1610284353
tura,25.5198,90.2201,18.52,18.52,18.52,59,13,1.14,IN,1610284354
magalia,39.8121,-121.5783,3.65,5,2.78,75,75,3.09,US,1610284355
svetlaya,46.5389,138.3297,-18.8,-18.8,-18.8,82,0,4.01,RU,1610284356
hearst,49.6835,-83.6665,-9,-9,-9,92,41,1.54,CA,1610284357
esperance,-33.8667,121.9,17,17,17,88,90,5.14,AU,1610284359
brus laguna,15.75,-84.4833,22.42,22.42,22.42,96,15,1.99,HN,1610284360
bredasdorp,-34.5322,20.0403,22,22,22,46,93,4.12,ZA,1610284362
lavrentiya,65.5833,-171,-25.46,-25.46,-25.46,84,0,4.32,RU,1610284363
galesong,-5.3166,119.3661,25,25,25,100,40,1.03,ID,1610284364
ribeira grande,38.5167,-28.7,16,16,16,100,75,9.77,PT,1610284365
terrak,65.087,12.3715,1,1,1,80,75,6.69,NO,1610284366
college,64.8569,-147.8028,-10.98,-10,-12,79,75,2.06,US,1610284367
waingapu,-9.6567,120.2641,27.92,27.92,27.92,79,41,0.82,ID,1610284368
luderitz,-26.6481,15.1594,25.03,25.03,25.03,46,53,13.32,NA,1610284369
tatarsk,55.219,75.9828,-18.26,-18.26,-18.26,93,100,2.65,RU,1610284370
lluta,-16.0147,-72.0142,17,17,17,51,0,2.06,PE,1610284371
ust-kuyga,70.0167,135.6,-32.82,-32.82,-32.82,84,98,1.3,RU,1610284373
hambantota,6.1241,81.1185,26,26,26,100,90,1.03,LK,1610284374
sao joao da barra,-21.6403,-41.0511,30,30,30,66,40,3.09,BR,1610284375
cabo san lucas,22.8909,-109.9124,13.89,13.89,13.89,38,0,0.89,MX,1610284376
borovichi,58.3878,33.9155,-15.49,-15.49,-15.49,93,69,1.17,RU,1610284264
guerrero negro,27.9769,-114.0611,10.68,10.68,10.68,73,0,0.15,MX,1610284379
taltal,-25.4,-70.4833,20.33,20.33,20.33,64,10,2.62,CL,1610284380
port alfred,-33.5906,26.891,20.56,20.56,20.56,87,100,7.78,ZA,1610284381
paamiut,61.994,-49.6678,1.12,1.12,1.12,97,100,3.14,GL,1610284382
seoul,37.5683,126.9778,-6.31,-5,-8,54,75,1.54,KR,1610284096
persianovskiy,47.5137,40.1075,1.85,2,1.67,80,0,5,RU,1610284384
ferrol,43.4832,-8.2369,9.87,10.56,9,57,20,7.72,ES,1610284385
boddam,57.4667,-1.7833,2.45,4,1.11,81,100,0.51,GB,1610284386
lorengau,-2.0226,147.2712,27.75,27.75,27.75,69,100,1.57,PG,1610284387
gasa,31.5,34.4667,21.53,22.78,20,49,0,3.28,PS,1610284388
iqaluit,63.7506,-68.5145,-13.17,-13,-13.33,85,75,1.54,CA,1610284389
dawei,14.0833,98.2,22.9,22.9,22.9,70,13,1.33,MM,1610284390
machaneng,-23.1862,27.4886,35.04,35.04,35.04,24,0,3.77,BW,1610284391
georgetown,5.4112,100.3354,27.26,28.33,25.56,69,20,2.57,MY,1610284230
aldine,29.9324,-95.3802,4.17,4.44,3.89,93,90,5.14,US,1610284393
bulri,24.8667,68.3333,19.5,19.5,19.5,23,0,3.82,PK,1610284394
natal,-5.795,-35.2094,29.49,30,29,65,75,5.14,BR,1610284395
hilo,19.7297,-155.09,17.78,19,16.11,68,40,3.09,US,1610284397
nome,64.5011,-165.4064,-15,-15,-15,72,1,4.12,US,1610284398
yerofey pavlovich,53.9667,121.9667,-25.92,-25.92,-25.92,85,5,0.62,RU,1610284400
kachiry,53.0675,76.1036,-11.16,-11.16,-11.16,95,100,4.44,KZ,1610284402
coquimbo,-29.9533,-71.3436,16,16,16,77,40,3.6,CL,1610284403
sambava,-14.2667,50.1667,27.75,27.75,27.75,76,71,3.1,MG,1610284337
berdigestyakh,62.0989,126.6992,-34.69,-34.69,-34.69,83,100,1.01,RU,1610284405
cabedelo,-6.9811,-34.8339,28,28,28,74,75,4.12,BR,1610284406
urengoy,65.9667,78.3667,-33.53,-33.53,-33.53,85,1,3.74,RU,1610284407
san cristobal,7.7669,-72.225,24,24,24,94,40,1.54,VE,1610284407
sibolga,1.7427,98.7792,25.98,25.98,25.98,78,100,0.51,ID,1610284409
katangli,51.7102,143.2326,-23.64,-23.64,-23.64,87,100,4.34,RU,1610284411
kalabo,-14.97,22.6814,28.58,28.58,28.58,58,44,2,ZM,1610284412
amarante do maranhao,-5.5667,-46.7422,25.96,25.96,25.96,86,100,1.78,BR,1610284414
ostersund,63.1792,14.6357,-6,-6,-6,93,0,2.06,SE,1610284401
taitung,22.7583,121.1444,14,14,14,62,75,3.6,TW,1610284416
pangnirtung,66.1451,-65.7125,-14.22,-14.22,-14.22,83,100,0.37,CA,1610284417
sanson,-40.2167,175.4167,15.34,16.11,15,83,53,2.24,NZ,1610284418
do gonbadan,30.3586,50.7981,18,18,18,20,0,2.02,IR,1610284381
darlowo,54.421,16.4107,-0.56,-0.56,-0.56,97,78,6.99,PL,1610284421
hovd,48.0056,91.6419,-19.91,-19.91,-19.91,83,100,0.56,MN,1610284422
pangody,65.85,74.4859,-34.06,-34.06,-34.06,85,1,4.11,RU,1610284424
ratlam,23.3167,75.0667,23.48,23.48,23.48,58,98,1.26,IN,1610284425
dandong,40.1292,124.3947,-10.58,-10.58,-10.58,79,0,1.77,CN,1610284427
vangaindrano,-23.35,47.6,28.06,28.06,28.06,70,13,4.33,MG,1610284429
arrecife,28.963,-13.5477,18,18,18,63,40,8.23,ES,1610284260
hasaki,35.7333,140.8333,-4,-4,-4,74,20,0.51,JP,1610284432
mahajanga,-15.7167,46.3167,30,30,30,66,20,5.14,MG,1610284160
yenagoa,4.9247,6.2642,32.14,32.14,32.14,59,91,1.28,NG,1610284434
leningradskiy,69.3833,178.4167,-29.24,-29.24,-29.24,84,95,2.86,RU,1610284435
acapulco,16.8634,-99.8901,22.6,22.6,22.6,74,11,1.61,MX,1610284437
chapayevka,47.4711,36.3451,1.34,1.34,1.34,84,97,3.46,UA,1610284438
sokoni,-6.4333,39.55,28,28,28,78,75,7.2,TZ,1610284439
belaya gora,68.5333,146.4167,-35.83,-35.83,-35.83,85,68,0.5,RU,1610284440
tabuk,17.4189,121.4443,18.26,18.26,18.26,83,69,3.15,PH,1610284441
bud,39.447,-86.1758,-3.71,-3.33,-3.89,92,80,0.53,US,1610284442
kasongo,-4.45,26.6667,26.27,26.27,26.27,79,98,1.64,CD,1610284444
fairbanks,64.8378,-147.7164,-10.96,-10,-12,79,75,2.06,US,1610284287
chiriqui grande,8.95,-82.1167,18.33,18.33,18.33,77,100,2.68,PA,1610284446
maragogi,-9.0122,-35.2225,28.65,28.65,28.65,62,100,4.85,BR,1610284447
dzhebariki-khaya,62.2167,135.8,-37.14,-37.14,-37.14,82,100,0.08,RU,1610284448
akita,39.7167,140.1167,-5,-5,-5,93,75,1.54,JP,1610284449
padang,-0.9492,100.3543,27,27,27,89,40,1.03,ID,1610284426
manaus,-3.1019,-60.025,25.02,26,24,83,75,4.12,BR,1610284452
las vegas,36.175,-115.1372,2.94,4,1.11,52,40,2.06,US,1610284282
avrille,47.5,-0.5833,6.18,7.22,5,65,0,4.12,FR,1610284454
riyadh,24.6877,46.7219,18.38,19,18,48,40,1.54,SA,1610284248
paita,-5.0892,-81.1144,22,22,22,83,0,6.17,PE,1610284456
nanortalik,60.1432,-45.2371,0.3,0.3,0.3,92,100,2.97,GL,1610284457
tiksi,71.6872,128.8694,-27.72,-27.72,-27.72,88,94,3.35,RU,1610284458
clyde river,70.4692,-68.5914,-16,-16,-16,85,75,6.17,CA,1610284459
redmond,47.674,-122.1215,5.2,6.11,4.44,92,100,1.38,US,1610284460
madarounfa,13.3087,7.156,33,33,33,13,0,4.12,NE,1610284461
chardara,41.2547,67.9692,1.85,1.85,1.85,73,95,1.54,KZ,1610284462
gambo,4.6482,22.2633,38.75,38.75,38.75,17,82,1.07,CF,1610284465
toora-khem,52.4675,96.11,-19.17,-19.17,-19.17,87,100,0.68,RU,1610284467
inirida,3.8653,-67.9239,24.29,24.29,24.29,93,98,0.4,CO,1610284468
moranbah,-22.0016,148.0466,21.23,21.23,21.23,84,100,8.06,AU,1610284469
sabang,5.8933,95.3214,27.88,27.88,27.88,77,37,8.43,ID,1610284470
yar-sale,66.8333,70.8333,-28.34,-28.34,-28.34,87,23,4.21,RU,1610284471
andenes,69.3143,16.1194,0.61,1,0,60,75,8.75,NO,1610284472
cherskiy,68.75,161.3,-33.56,-33.56,-33.56,85,99,1.91,RU,1610284419
mehamn,71.0357,27.8492,-9.86,-9.86,-9.86,94,26,8.91,NO,1610284474
lagoa,39.05,-27.9833,14.76,14.76,14.76,90,100,8.1,PT,1610284475
baykit,61.67,96.37,-24.32,-24.32,-24.32,85,98,1.19,RU,1610284476
moussoro,13.6408,16.4901,33.52,33.52,33.52,11,0,7.85,TD,1610284477
montes altos,-5.8333,-47.0667,27,27,27,83,75,0.51,BR,1610284478
menongue,-14.6585,17.691,24.11,24.11,24.11,65,100,2.11,AO,1610284480
pecos,31.4229,-103.4932,0,0,0,100,90,4.12,US,1610284385
vestmanna,62.1564,-7.1664,-1,-1,-1,80,40,5.14,FO,1610284482
mount gambier,-37.8333,140.7667,23,23,23,49,1,2.57,AU,1610284483
hunchun,42.8675,130.3581,-13.26,-13.26,-13.26,82,0,3.35,CN,1610284484
dalvik,65.9702,-18.5286,-7,-7,-7,68,75,2.57,IS,1610284485
dikson,73.5069,80.5464,-10.99,-10.99,-10.99,97,100,6.73,RU,1610284441
mahebourg,-20.4081,57.7,27,27,27,89,75,5.14,MU,1610284487
mudgal,16.0167,76.4333,26.99,26.99,26.99,47,99,3.79,IN,1610284488
yerbogachen,61.2767,108.0108,-25.08,-25.08,-25.08,89,100,1.79,RU,1610284489
onega,63.9061,38.1404,-21.94,-21.94,-21.94,89,6,1.01,RU,1610284490
sfantu gheorghe,45.8667,25.7833,-1.2,-0.56,-1.67,90,72,0.89,RO,1610284382
petropavlovsk-kamchatskiy,53.0452,158.6483,-16,-16,-16,85,1,3.8,RU,1610284492
namatanai,-3.6667,152.4333,27.1,27.1,27.1,77,89,0.63,PG,1610284493
ancud,-41.8697,-73.8203,8.92,11.67,5,71,75,3.6,CL,1610284494
kukushtan,57.6464,56.4952,-16,-16,-16,78,75,10,RU,1610284495
longyearbyen,78.2186,15.6401,-1,-1,-1,74,75,5.14,SJ,1610284496
agadez,19.75,10.25,30.22,30.22,30.22,13,0,4.36,NE,1610284498
vestmannaeyjar,63.4427,-20.2734,-5,-5,-5,80,0,5.14,IS,1610284499
kandrian,-6.2167,149.55,26.27,26.27,26.27,82,100,3.11,PG,1610284500
boyolangu,-8.1181,111.8935,25.45,25.45,25.45,84,100,1.02,ID,1610284501
cidreira,-30.1811,-50.2056,25.82,25.82,25.82,77,25,5.37,BR,1610284502
tasiilaq,65.6145,-37.6368,-6,-6,-6,53,90,1.03,GL,1610284503
roma,43.2128,-75.4557,-9.28,-9,-9.44,79,90,1.54,US,1610284507
sitka,57.0531,-135.33,6,6,6,81,90,7.72,US,1610284508
shelbyville,35.4834,-86.4603,-1.93,-1.67,-2.22,74,90,2.57,US,1610284509
labrea,-7.2586,-64.7981,27.58,27.58,27.58,74,92,1.5,BR,1610284510
kununurra,-15.7667,128.7333,31,31,31,79,0,5.14,AU,1610284511
cairns,-16.9167,145.7667,26.06,26.11,26,89,90,2.57,AU,1610284512
bela,25.9333,81.9833,21.54,21.54,21.54,62,16,3.82,IN,1610284513
pundaguitan,6.3711,126.1689,28.39,28.39,28.39,79,7,6.52,PH,1610284514
diffa,13.3154,12.6113,33.44,33.44,33.44,11,30,7.33,NE,1610284409
mareeba,-17,145.4333,24.98,26.11,23.33,89,90,2.57,AU,1610284517
souillac,-20.5167,57.5167,27,27,27,89,75,5.14,MU,1610284521
beyneu,45.3167,55.2,2.27,2.27,2.27,73,100,2.62,KZ,1610284522
port hedland,-20.3167,118.5667,31,31,31,79,90,3.6,AU,1610284523
santa rosa,14.3122,121.1114,24.8,25,24.44,69,75,2.57,PH,1610284524
russell,32.3502,-85.1999,-3.04,-2,-3.89,86,1,1.5,US,1610284525
cayenne,4.9333,-52.3333,27,27,27,89,75,5.14,GF,1610284526
jalu,29.0331,21.5482,28.31,28.31,28.31,22,0,4.37,LY,1610284527
xining,36.6167,101.7667,-11.26,-11.26,-11.26,65,1,2.82,CN,1610284528
puerto madryn,-42.7692,-65.0385,21.44,21.44,21.44,30,100,9.6,AR,1610284253
aykhal,66,111.5,-35.93,-35.93,-35.93,81,100,2.92,RU,1610284532
ak-dovurak,51.1833,90.6,-24.23,-24.23,-24.23,83,100,0.57,RU,1610284538
uniao,-4.5858,-42.8642,30,30,30,62,75,2.57,BR,1610284540
sao filipe,14.8961,-24.4956,22.11,22.11,22.11,71,100,8.46,CV,1610284541
aklavik,68.2191,-135.0107,-18.43,-17,-20,85,73,1.54,CA,1610284542
sabha,27.0377,14.4283,28.53,28.53,28.53,14,0,6.52,LY,1610284543
codrington,-38.2667,141.9667,20.22,20.22,20.22,59,64,3.22,AU,1610284545
saint-denis,48.9167,2.3333,2.95,3.33,2.78,87,0,2.06,FR,1610284546
bairiki,1.3292,172.9752,26,26,26,89,40,4.63,KI,1610284547
madang,-5.2246,145.7966,25.76,25.76,25.76,86,100,0.83,PG,1610284548
malim,7.452,123.4312,27.24,27.24,27.24,82,99,5.35,PH,1610284549
northam,51.0333,-4.2167,6.12,6.67,5.56,84,74,2.68,GB,1610284550
hammond,41.5834,-87.5,-3.97,-3,-4.44,93,90,2.14,US,1610284554
lompoc,34.6391,-120.4579,6.72,10,4,87,1,3.09,US,1610284556
sungairaya,0.7,108.9,26.07,26.07,26.07,85,100,0.95,ID,1610284282
havelock,34.8791,-76.9013,1.05,3.89,-1.11,70,1,4.12,US,1610284561
kutum,14.2,24.6667,25.81,25.81,25.81,15,0,6.78,SD,1610284563
skegness,53.1436,0.3363,2.46,3,2.22,93,0,3.6,GB,1610284564
namwala,-15.7504,26.4384,28,28,28,62,92,2,ZM,1610284565
tomatlan,19.9333,-105.25,16.83,16.83,16.83,88,0,1.16,MX,1610284566
saldanha,-33.0117,17.9442,26,26,26,36,0,9.77,ZA,1610284570
bengkulu,-3.8004,102.2655,26.26,26.26,26.26,80,100,1.22,ID,1610284571
ostrovnoy,68.0531,39.5131,-15.86,-15.86,-15.86,91,2,5.55,RU,1610284572
aswan,24.0934,32.907,28.53,28.53,28.53,17,0,5.09,EG,1610284573
puerto escondido,15.85,-97.0667,21,21,21,83,40,2.57,MX,1610284574
esso,55.9333,158.7,-14.64,-14.64,-14.64,89,100,1.26,RU,1610284575
peniche,39.3558,-9.3811,10.52,11.67,10,50,1,5.81,PT,1610284468
galveston,29.3669,-94.9669,7.82,9.44,5.56,76,90,6.69,US,1610284521
quatre cocos,-20.2078,57.7625,27.69,28.33,27,89,75,5.14,MU,1610284579
faya,18.3851,42.4509,17,17,17,45,40,4.63,SA,1610284580
salalah,17.0151,54.0924,24,24,24,38,0,4.12,OM,1610284583
waddan,29.1614,16.139,29.61,29.61,29.61,14,31,7.31,LY,1610284584
krasnomayskiy,57.6194,34.4099,-14.18,-14.18,-14.18,95,93,1.32,RU,1610284585
avera,33.194,-82.5271,-2.21,-1.67,-3,92,1,2.06,US,1610284587
hokitika,-42.7167,170.9667,13.21,13.21,13.21,86,22,2.33,NZ,1610284591
malayal,7.208,121.942,26,26,26,94,40,1.03,PH,1610284593
la palma,33.8464,-118.0467,10.79,16.67,8,53,1,1.54,US,1610284412
westport,41.1415,-73.3579,-2.65,-2,-3.33,64,1,2.57,US,1610284581
koboko,3.4136,30.9599,29.55,29.55,29.55,27,93,2.24,UG,1610284596
parkes,-33.1333,148.1833,23.89,23.89,23.89,36,0,0.45,AU,1610284597
lopatino,52.6195,45.8118,-4.2,-4.2,-4.2,97,97,5.33,RU,1610284599
sao joao do piaui,-8.3581,-42.2467,25.8,25.8,25.8,73,100,1.77,BR,1610284600
kavieng,-2.5744,150.7967,28.27,28.27,28.27,73,100,1.72,PG,1610284602
kang,-23.6752,22.7876,30.39,30.39,30.39,38,100,3.01,BW,1610284603
bay roberts,47.5999,-53.2648,-0.63,0,-1.11,100,90,7.2,CA,1610284604
imeni poliny osipenko,52.4201,136.4853,-28.71,-28.71,-28.71,88,100,1.24,RU,1610284606
sanghar,26.0466,68.9481,20,20,20,40,0,3.09,PK,1610284607
gizo,-8.103,156.8419,29.22,29.22,29.22,72,88,2.64,SB,1610284540
ballina,-28.8667,153.5667,20.04,22,18.33,68,75,4.63,AU,1610284609
saint-augustin,51.226,-58.6502,-4.92,-4.92,-4.92,83,97,6.43,CA,1610284610
prabumulih,-3.45,104.25,23.59,23.59,23.59,89,100,1.76,ID,1610284611
dharchula,29.85,80.5333,12.81,12.81,12.81,31,72,3.55,IN,1610284612
hirara,24.8,125.2833,16.7,16.7,16.7,75,47,10.88,JP,1610284613
mineros,-17.1167,-63.2333,29,29,29,74,75,6.17,BO,1610284615
hay river,60.8156,-115.7999,-10.49,-10,-11,79,100,2.57,CA,1610284508
kemi,65.8596,24.8228,-18,-18,-18,85,20,4.12,FI,1610284617
hamilton,39.1834,-84.5333,-7.64,-7,-9,86,1,1.02,US,1610284402
ushtobe,45.2514,77.9838,-10.53,-10.53,-10.53,79,33,2.34,KZ,1610284542
altamont,42.2068,-121.7372,-1.66,-1,-2.22,86,90,0.72,US,1610284621
opuwo,-18.0607,13.84,27.93,27.93,27.93,37,57,2.68,NA,1610284623
neryungri,56.6709,124.6491,-26.96,-26.96,-26.96,86,100,2.2,RU,1610284624
khandyga,62.6667,135.6,-37.13,-37.13,-37.13,83,100,0.22,RU,1610284626
solnechnyy,50.7214,136.6319,-26.13,-26.13,-26.13,83,65,1.55,RU,1610284511
burns lake,54.2331,-125.7533,-10,-10,-10,85,98,0.51,CA,1610284508
bemidji,47.4736,-94.8803,-5,-5,-5,93,90,1.54,US,1610284630
vanavara,60.34,102.2797,-24.43,-24.43,-24.43,90,90,0.25,RU,1610284631
chapais,49.7834,-74.8492,-9,-9,-9,92,90,2.06,CA,1610284492
muros,42.7762,-9.0603,10.31,10.56,10,55,0,3.13,ES,1610284636
majene,-3.5403,118.9707,26.5,26.5,26.5,85,100,2.7,ID,1610284637
rawson,-43.3002,-65.1023,20.68,20.68,20.68,33,100,9.95,AR,1610284638
moba,33.2288,105.0179,-7.41,-7.41,-7.41,73,12,3.36,CN,1610284640
micheweni,-4.9667,39.8333,25.68,25.68,25.68,83,100,7.46,TZ,1610284641
grand island,40.925,-98.342,0.25,1,-0.56,80,90,1.54,US,1610284642
monroe,43.1501,-77.6831,-3.37,-2.22,-4,93,75,3.09,US,1610284643
viedma,-40.8135,-62.9967,23.33,23.33,23.33,29,15,5.81,AR,1610284644
porbandar,21.6422,69.6093,23.9,23.9,23.9,47,3,6.05,IN,1610284645
atar,20.5169,-13.0499,20.79,20.79,20.79,26,0,10.36,MR,1610284646
lixourion,38.2019,20.4314,21,21,21,64,40,2.57,GR,1610284566
sambalpur,21.45,83.9667,27,27,27,69,20,0.37,IN,1610284649
beisfjord,68.3751,17.5988,0,0,0,55,0,5.66,NO,1610284650
ust-nera,64.5667,143.2,-38.64,-38.64,-38.64,71,44,1.18,RU,1610284448
regeneracao,-6.2378,-42.6883,26.93,26.93,26.93,81,95,2.6,BR,1610284653
panzhihua,26.5851,101.7128,11.54,11.54,11.54,60,37,0.71,CN,1610284520
kiruna,67.8557,20.2251,-10,-10,-10,92,90,5.14,SE,1610284657
champerico,14.3,-91.9167,21,21,21,78,0,1.86,GT,1610284658
albert,50.0009,2.651,4.66,5.56,4,87,0,2.06,FR,1610284659
yumen,40.2833,97.2,-10.04,-10.04,-10.04,74,0,10.35,CN,1610284662
ayan,56.45,138.1667,-23.46,-23.46,-23.46,76,100,3.58,RU,1610284663
newtonmore,57.066,-4.1192,5.31,6,4.44,87,40,6.69,GB,1610284664
bani,18.2833,-70.3333,24.19,25.56,23,83,75,3.11,DO,1610284665
la ronge,55.1001,-105.2842,-9.5,-9,-10,79,100,1.54,CA,1610284557
port hardy,50.6996,-127.4199,6.39,7,6,87,75,9.26,CA,1610284424
alofi,-19.0595,-169.9187,23,23,23,94,90,1.54,NU,1610284670
bouafle,6.9904,-5.7442,32,32,32,62,75,2.06,CI,1610284671
marsa matruh,31.3525,27.2453,24,24,24,33,0,4.12,EG,1610284672
hobyo,5.3505,48.5268,25.54,25.54,25.54,63,0,10.43,SO,1610284492
la rioja,42.25,-2.5,4.04,5,3,75,20,5.66,ES,1610284674
itarema,-2.9248,-39.9167,30.21,30.21,30.21,56,99,6.04,BR,1610284530
piacabucu,-10.4056,-36.4344,29.92,29.92,29.92,56,100,5.57,BR,1610284678
coihaique,-45.5752,-72.0662,5,5,5,81,75,2.06,CL,1610284679
englehart,47.8169,-79.8664,-11,-11,-11,92,90,3.09,CA,1610284680
nabire,-3.3667,135.4833,26.35,26.35,26.35,83,100,0.91,ID,1610284388
amga,60.8953,131.9608,-38.79,-38.79,-38.79,80,98,0.12,RU,1610284682
sur,22.5667,59.5289,20.53,20.53,20.53,43,0,7.9,OM,1610284463
beloha,-25.1667,45.05,33.54,33.54,33.54,41,39,6.91,MG,1610284686
puerto narino,-3.7703,-70.3831,25,25,25,100,40,2.57,CO,1610284688
mandurah,-32.55,115.7,21.67,21.67,21.67,71,0,3.58,AU,1610284605
naze,28.3667,129.4833,10.48,10.48,10.48,76,50,4.95,JP,1610284692
ciudad bolivar,8.1222,-63.5497,26.28,26.28,26.28,75,15,5,VE,1610284693
khasan,42.4308,130.6434,-9.84,-9.84,-9.84,84,0,7.32,RU,1610284694
mushie,-3.0167,16.9,34.59,34.59,34.59,42,2,0.78,CD,1610284695
san-pedro,4.7485,-6.6363,28.03,28.03,28.03,79,29,3.18,CI,1610284628
marienburg,54.0359,19.0266,0.75,1.67,0,93,83,0.89,PL,1610284697
belturbet,54.1,-7.45,5,5,5,92,98,1.79,IE,1610284698
marawi,7.9986,124.2928,25.56,25.56,25.56,90,100,0.96,PH,1610284700
kuzhener,56.8111,48.9128,-12.82,-12.82,-12.82,95,100,6.59,RU,1610284701
troy,42.6056,-83.1499,-5.82,-5,-6.11,100,1,1.51,US,1610284702
najran,17.4924,44.1277,20,20,20,24,0,3.09,SA,1610284703
gijon,43.5357,-5.6615,9.24,9.44,8.89,73,100,4.02,ES,1610284549
sola,-13.8833,167.55,25,25,25,94,20,2.63,VU,1610284605
tiznit,29.5833,-9.5,9.9,9.9,9.9,81,97,7.52,MA,1610284710
byron bay,-28.65,153.6167,19.53,22,18.33,68,75,4.63,AU,1610284712
nemuro,43.3236,145.575,-6.11,-6.11,-6.11,88,31,7.98,JP,1610284685
colares,38.7992,-9.4469,9.19,10,7.78,53,20,4.63,PT,1610284714
soure,-0.7167,-48.5233,28.16,28.16,28.16,76,93,4.97,BR,1610284715
narsaq,60.9167,-46.05,6,6,6,36,75,8.75,GL,1610284716
nsanje,-16.92,35.262,35.88,35.88,35.88,45,100,1.22,MW,1610284717
belmonte,-15.8631,-38.8828,28,28,28,69,40,5.14,BR,1610284720
berlevag,70.8578,29.0864,-9.1,-9.1,-9.1,94,33,10.03,NO,1610284467
mangan,27.5167,88.5333,15.59,15.59,15.59,52,95,0.28,IN,1610284725
albania,41,20,10,11,8,93,75,4.12,AL,1610284726
walvis bay,-22.9575,14.5053,21.08,21.08,21.08,67,18,4.72,NA,1610284727
katherine,-14.4667,132.2667,28,28,28,74,50,2.57,AU,1610284728
margate,51.3813,1.3862,2.41,3.33,1.11,91,0,1.34,GB,1610284577
aasiaat,68.7098,-52.8699,-8.91,-8.91,-8.91,88,100,2.55,GL,1610284730
excelsior springs,39.3392,-94.2261,-3.57,-3,-3.89,74,90,4.12,US,1610284458
asau,46.4333,26.4,2.11,2.22,2,69,0,2.06,RO,1610284470
ugoofaaru,5.6667,73,27.71,27.71,27.71,76,97,3.19,MV,1610284733
smithers,54.7804,-127.1743,-3,-3,-3,93,20,3.09,CA,1610284735
manavalakurichi,8.1333,77.3,28,28,28,83,75,1.54,IN,1610284736
los llanos de aridane,28.6585,-17.9182,16.58,19,15,63,20,9.77,ES,1610284738
izazi,-7.2,35.7333,22,22,22,83,75,5.66,TZ,1610284739
eregli,37.5133,34.0467,14.29,14.29,14.29,43,100,1.01,TR,1610284740
lagos,6.5833,3.75,33.23,33.23,33.23,49,3,2.69,NG,1610284218
morgan city,29.6994,-91.2068,2.86,3,2.78,81,40,7.2,US,1610284523
pandan,14.0453,124.1694,24.22,24.22,24.22,85,100,9.76,PH,1610284746
roebourne,-20.7833,117.1333,34.07,34.07,34.07,41,0,4.5,AU,1610284621
alcantara,-2.4089,-44.4147,29,29,29,74,40,6.69,BR,1610284748
santa maria,-29.6842,-53.8069,28,28,28,61,0,1.54,BR,1610284749
abakaliki,6.3163,8.1169,28,28,28,69,0,1.03,NG,1610284750
vysokogornyy,50.1167,139.15,-31.09,-31.09,-31.09,84,99,1.41,RU,1610284751
meulaboh,4.1363,96.1285,24.83,24.83,24.83,90,100,4.09,ID,1610284752
port-cartier,50.0334,-66.8654,-9.31,-8,-10,67,0,3.09,CA,1610284753
qingdao,36.0986,120.3719,-3.35,-2.22,-5,68,0,3,CN,1610284754
gat,31.61,34.7642,21.1,22.22,20,41,0,1.34,IL,1610284717
vilyuysk,63.7553,121.6247,-30.74,-30.74,-30.74,86,100,2.08,RU,1610284758
labuan,5.2767,115.2417,27.89,28,27.78,83,20,1.54,MY,1610284760
oistins,13.0667,-59.5333,28,28,28,69,40,10.8,BB,1610284523
novonukutskiy,53.7002,102.7117,-17.18,-17.18,-17.18,89,100,1.04,RU,1610284763
waverly,42.7392,-84.6208,-6.21,-6,-6.67,93,90,0.99,US,1610284598
southbridge,42.0751,-72.0334,-4.7,-3.89,-6.11,63,1,3.1,US,1610284769
mina,26.0011,-100.5299,8.92,9,8.89,100,90,5.14,MX,1610284773
calabozo,8.9242,-67.4293,25.56,25.56,25.56,75,98,4,VE,1610284775
toamasina,-18.1667,49.3833,31,31,31,66,40,4.12,MG,1610284777
sisimiut,66.9395,-53.6735,-5.22,-5.22,-5.22,82,100,2.71,GL,1610284779
pyapon,16.2833,95.6833,25.51,25.51,25.51,73,3,3.42,MM,1610284781
caravelas,-17.7125,-39.2481,29.7,29.7,29.7,60,0,4.46,BR,1610284782
cockburn town,21.4612,-71.1419,25.27,25.27,25.27,78,100,5.56,TC,1610284784
acari,-15.4311,-74.6158,23.37,23.37,23.37,59,96,2.11,PE,1610284787
mackay,-21.15,149.2,23.52,24,22.78,94,75,11.83,AU,1610284601
ipswich,52.0592,1.1555,2.48,5.56,0.56,100,75,4.63,GB,1610284720
mitu,1.1983,-70.1733,22.36,22.36,22.36,94,99,0.33,CO,1610284791
akdepe,42.0551,59.3788,5.98,7,5,42,0,4.12,TM,1610284792
boguchany,58.3814,97.4531,-23.06,-23.06,-23.06,88,100,0.87,RU,1610284793
jiayuguan,39.8167,98.3,-12.1,-12.1,-12.1,77,0,8.33,CN,1610284794
gravdal,68.1214,13.5031,2,2,2,55,75,5.66,NO,1610284795
krasnoselkup,65.7,82.4667,-30.88,-30.88,-30.88,87,0,3.55,RU,1610284524
torrington,41.8007,-73.1212,-5.36,-5,-6.11,88,3,0.89,US,1610284799
wajima,37.4,136.9,1.24,1.24,1.24,96,100,5.65,JP,1610284800
camara de lobos,32.6333,-16.9667,11.02,15,8.89,67,40,7.72,PT,1610284801
mamontovo,52.7055,81.6244,-9.47,-9.47,-9.47,95,100,8.18,RU,1610284803
leh,34.1667,77.5833,-14.73,-14.73,-14.73,48,0,1.08,IN,1610284804
katsuura,35.1333,140.3,5.72,7,4.44,42,75,2.06,JP,1610284805
les cayes,18.2,-73.75,24.56,24.56,24.56,80,100,2.06,HT,1610284807
portland,45.5234,-122.6762,4.45,5.56,3.33,94,100,0.45,US,1610284523
romuli,47.5333,24.4333,-0.55,-0.55,-0.55,84,70,0.54,RO,1610284809
ornskoldsvik,63.2909,18.7153,-4,-4,-4,100,90,1.54,SE,1610284812
kamenka,51.3223,42.7678,-0.56,-0.56,-0.56,84,100,5.33,RU,1610284813
benguela,-12.5763,13.4055,27.06,27.06,27.06,59,99,5.28,AO,1610284814
auki,-8.7676,160.7034,26.62,26.62,26.62,81,100,2.16,SB,1610284670
sherlovaya gora,50.5667,116.25,-20.53,-20.53,-20.53,92,100,1.75,RU,1610284816
mabaruma,8.2,-59.7833,25.2,25.2,25.2,94,2,2.39,GY,1610284818
pathein,16.7833,94.7333,24.04,24.04,24.04,74,0,4.36,MM,1610284819
tabou,4.423,-7.3528,28.48,28.48,28.48,75,43,3.76,CI,1610284820
pucara,-15.9803,-71.4606,17,17,17,51,0,2.06,PE,1610284821
moron,-34.6534,-58.6198,28.3,30,26.11,56,0,2.24,AR,1610284822
kurilsk,45.2333,147.8833,-5.57,-5.57,-5.57,96,99,9.1,RU,1610284823
cururupu,-1.8283,-44.8683,27.4,27.4,27.4,82,91,2.69,BR,1610284824
ploemeur,47.7333,-3.4333,6.6,7.22,6,65,20,3.09,FR,1610284697
