City Name,Latitude,Longitude,Temperature (F),Max. Temp (F),Min. Temp (F),Humidity (%),Cloudiness (%),Wind Speed (mph),Country Code,Date & Time
port blair,11.6667,92.75,81.72,81.72,81.72,62,31,11.74,IN,14-01-2021 17:36:31
hermanus,-34.4187,19.2345,72,72,72,84,83,5.01,ZA,14-01-2021 17:29:46
yellowknife,62.456,-114.3525,6.62,7,6.01,85,40,8.05,CA,14-01-2021 17:31:09
ancud,-41.8697,-73.8203,44.78,46.99,42.8,93,0,2.59,CL,14-01-2021 17:36:34
nabire,-3.3667,135.4833,86.2,86.2,86.2,66,82,3,ID,14-01-2021 17:36:35
hobart,-42.8794,147.3294,64.45,66.2,62.01,59,75,12.66,AU,14-01-2021 17:31:29
ushuaia,-54.8,-68.3,51.8,51.8,51.8,71,75,3.44,AR,14-01-2021 17:29:54
karratha,-20.7377,116.8463,107.1,107.1,107.1,18,0,13.24,AU,14-01-2021 17:36:38
vaini,-21.2,-175.2,80.6,80.6,80.6,94,75,5.75,TO,14-01-2021 17:30:47
airai,-8.9266,125.4092,70.56,70.56,70.56,99,100,1.25,TL,14-01-2021 17:32:18
atambua,-9.1061,124.8925,82.53,82.53,82.53,78,96,3.27,ID,14-01-2021 17:32:23
vanimo,-2.6741,141.3028,84.02,84.02,84.02,76,100,9.44,PG,14-01-2021 17:35:00
pacific grove,36.6177,-121.9166,56.73,57.99,55,82,1,8.05,US,14-01-2021 17:36:45
dikson,73.5069,80.5464,-28.3,-28.3,-28.3,81,0,5.68,RU,14-01-2021 17:36:46
skelleftea,64.7507,20.9528,-0.4,-0.4,-0.4,85,90,5.75,SE,14-01-2021 17:35:02
bluff,-46.6,168.3333,59,59,59,94,2,10,NZ,14-01-2021 17:30:18
waipawa,-41.4122,175.5153,68.5,71.01,66.2,77,20,8.05,NZ,14-01-2021 17:36:49
kruisfontein,-34.0033,24.7314,77,77,77,80,99,5.01,ZA,14-01-2021 17:30:00
pevek,69.7008,170.3133,-15.25,-15.25,-15.25,90,99,2.64,RU,14-01-2021 17:36:52
rikitea,-23.1203,-134.9692,77.72,77.72,77.72,75,83,12.19,PF,14-01-2021 17:29:31
los llanos de aridane,28.6585,-17.9182,53.47,59,50,63,0,9.22,ES,14-01-2021 17:36:54
east london,-33.0153,27.9116,69.8,69.8,69.8,100,90,11.5,ZA,14-01-2021 17:32:20
nanakuli,21.3906,-158.1547,73.99,77,69.8,73,90,8.05,US,14-01-2021 17:36:57
aranos,-24.1333,19.1167,77.72,77.72,77.72,59,31,4.92,NA,14-01-2021 17:35:02
hilo,19.7297,-155.09,68.23,71.6,64.99,78,1,3.44,US,14-01-2021 17:29:29
nigde,37.8333,34.75,35.56,35.56,35.56,83,100,2.68,TR,14-01-2021 17:37:01
sydney,-33.8679,151.2073,81.37,87.8,75,48,40,23.02,AU,14-01-2021 17:34:45
mataura,-46.1927,168.8643,59,59,59,94,1,10,NZ,14-01-2021 17:29:44
albany,42.6001,-73.9662,29.32,32,28,71,100,2.55,US,14-01-2021 17:28:04
saskylakh,71.9167,114.0833,-46.91,-46.91,-46.91,75,47,8.03,RU,14-01-2021 17:30:39
busselton,-33.65,115.3333,81.64,82,81,35,49,1.01,AU,14-01-2021 17:30:50
belomorsk,64.5232,34.7668,-19.89,-19.89,-19.89,87,2,1.86,RU,14-01-2021 17:37:07
aguimes,27.9054,-15.4461,59.45,60.01,59,72,20,6.91,ES,14-01-2021 17:37:08
deputatskiy,69.3,139.9,-31.16,-31.16,-31.16,85,100,1.7,RU,14-01-2021 17:37:09
mount gambier,-37.8333,140.7667,64.4,64.4,64.4,48,90,16.11,AU,14-01-2021 17:37:10
calabozo,8.9242,-67.4293,72.59,72.59,72.59,71,99,6.31,VE,14-01-2021 17:36:35
jamestown,42.097,-79.2353,35.35,37,33.8,80,1,9.22,US,14-01-2021 17:31:33
paraiso,9.8383,-83.8656,64.89,68,63,73,0,10.36,CR,14-01-2021 17:37:13
barrow,71.2906,-156.7887,-11.2,-11.2,-11.2,77,1,11.5,US,14-01-2021 17:30:29
carnarvon,-24.8667,113.6333,87.8,87.8,87.8,62,35,17.27,AU,14-01-2021 17:29:39
constitucion,-35.3333,-72.4167,53.01,53.01,53.01,62,0,7.94,CL,14-01-2021 17:37:16
caravelas,-17.7125,-39.2481,72.21,72.21,72.21,90,0,2.01,BR,14-01-2021 17:37:17
atuona,-9.8,-139.0333,77.54,77.54,77.54,78,42,11.34,PF,14-01-2021 17:30:22
turukhansk,65.8167,87.9833,-31.31,-31.31,-31.31,83,0,5.19,RU,14-01-2021 17:37:20
lebu,-37.6167,-73.65,52.65,52.65,52.65,88,4,14.74,CL,14-01-2021 17:37:21
whitehorse,60.7161,-135.0538,17.65,23,9,68,1,17.27,CA,14-01-2021 17:37:22
tuktoyaktuk,69.4541,-133.0374,-9.4,-9.4,-9.4,77,90,2.1,CA,14-01-2021 17:31:18
adra,36.7496,-3.0206,38.55,41,28.4,87,0,3.44,ES,14-01-2021 17:37:27
kokopo,-4.352,152.2633,85.21,85.21,85.21,68,100,6.22,PG,14-01-2021 17:37:28
palmer,42.1584,-72.3287,29.3,32,27,74,90,4.61,US,14-01-2021 17:37:29
lobito,-12.3481,13.5456,76.84,76.84,76.84,66,95,4.47,AO,14-01-2021 17:37:30
tankhoy,51.5528,105.1306,6.42,6.42,6.42,89,100,9.06,RU,14-01-2021 17:37:31
luwuk,-0.9516,122.7875,85.93,85.93,85.93,68,74,1.61,ID,14-01-2021 17:37:33
narsaq,60.9167,-46.05,26.6,26.6,26.6,86,75,5.75,GL,14-01-2021 17:31:23
bredasdorp,-34.5322,20.0403,68,68,68,88,95,12.66,ZA,14-01-2021 17:31:49
khatanga,71.9667,102.5,-41.73,-41.73,-41.73,80,92,10.85,RU,14-01-2021 17:35:19
benghazi,32.1167,20.0667,60.33,60.33,60.33,65,0,16.04,LY,14-01-2021 17:37:38
nanortalik,60.1432,-45.2371,28.11,28.11,28.11,94,100,9.44,GL,14-01-2021 17:30:49
avarua,-21.2078,-159.775,80.6,80.6,80.6,83,90,10.36,CK,14-01-2021 17:30:20
yerbogachen,61.2767,108.0108,-10.39,-10.39,-10.39,89,100,11.88,RU,14-01-2021 17:37:42
puerto ayora,-0.7393,-90.3518,73.99,73.99,73.99,96,68,4,EC,14-01-2021 17:30:54
nikolskoye,59.7035,30.7861,6.49,9,1.99,78,40,6.71,RU,14-01-2021 17:36:24
gainesville,29.6516,-82.3248,41.99,44.01,39.99,93,1,2.93,US,14-01-2021 17:33:17
nome,64.5011,-165.4064,17.6,17.6,17.6,86,90,11.5,US,14-01-2021 17:31:12
san cristobal,7.7669,-72.225,62.6,62.6,62.6,82,98,2.82,VE,14-01-2021 17:37:48
new norfolk,-42.7826,147.0587,63.75,64.99,62.01,49,81,3,AU,14-01-2021 17:32:19
jaru,-10.4389,-62.4664,73.17,73.17,73.17,95,100,2.15,BR,14-01-2021 17:37:51
port alfred,-33.5906,26.891,66.99,66.99,66.99,97,100,5.01,ZA,14-01-2021 17:30:45
mar del plata,-38.0023,-57.5575,63.28,64.99,60.8,59,0,8.05,AR,14-01-2021 17:30:05
port hardy,50.6996,-127.4199,42.39,44.6,41,87,90,8.05,CA,14-01-2021 17:37:54
saint george,37.1041,-113.5841,37.4,37.4,37.4,28,1,3.44,US,14-01-2021 17:29:36
acapulco,16.8634,-99.8901,75.2,75.2,75.2,75,98,8.32,MX,14-01-2021 17:34:44
chuy,-33.6971,-53.4616,60.19,60.19,60.19,69,0,5.84,UY,14-01-2021 17:30:14
arraial do cabo,-22.9661,-42.0278,75.2,75.2,75.2,89,97,19.75,BR,14-01-2021 17:34:57
lata,40.1629,-8.3327,46.17,46.4,46,81,75,5.75,PT,14-01-2021 17:37:09
castro,-24.7911,-50.0119,64.85,64.85,64.85,94,100,9.26,BR,14-01-2021 17:36:45
sola,-13.8833,167.55,86,86,86,84,75,12.88,VU,14-01-2021 17:38:03
chokurdakh,70.6333,147.9167,-17.79,-17.79,-17.79,88,100,8.81,RU,14-01-2021 17:30:28
solnechnyy,50.7214,136.6319,-7.19,-7.19,-7.19,88,48,1.28,RU,14-01-2021 17:38:05
zhezkazgan,47.8043,67.7144,-4.13,-4.13,-4.13,91,62,11.07,KZ,14-01-2021 17:38:06
banda aceh,5.5577,95.3222,82.94,82.94,82.94,76,99,11.16,ID,14-01-2021 17:38:07
kavieng,-2.5744,150.7967,84.65,84.65,84.65,72,57,14.05,PG,14-01-2021 17:30:30
butaritari,3.0707,172.7902,81.45,81.45,81.45,80,96,18.68,KI,14-01-2021 17:37:01
grindavik,63.8424,-22.4338,37.4,37.4,37.4,87,20,16.11,IS,14-01-2021 17:30:25
georgetown,5.4112,100.3354,86.59,87.8,86,58,20,3.44,MY,14-01-2021 17:31:14
mersing,2.4312,103.8405,82.4,82.4,82.4,74,40,13.8,MY,14-01-2021 17:36:16
punta arenas,-53.15,-70.9167,50,50,50,87,90,16.11,CL,14-01-2021 17:25:33
chara,56.9064,118.2631,-24.07,-24.07,-24.07,73,47,0.58,RU,14-01-2021 17:38:19
penalva,-3.2942,-45.1736,72.97,72.97,72.97,98,62,2.17,BR,14-01-2021 17:38:20
lagoa,39.05,-27.9833,61.79,61.79,61.79,87,99,13.47,PT,14-01-2021 17:34:59
krasnoselkup,65.7,82.4667,-10.59,-10.59,-10.59,89,100,7.18,RU,14-01-2021 17:31:54
qaanaaq,77.484,-69.3632,-2.13,-2.13,-2.13,75,0,3.76,GL,14-01-2021 17:31:13
longyearbyen,78.2186,15.6401,21.2,21.2,21.2,73,75,8.05,SJ,14-01-2021 17:29:59
iwanai,42.9744,140.5089,22.51,22.51,22.51,88,100,23.06,JP,14-01-2021 17:38:28
cabo san lucas,22.8909,-109.9124,55.99,55.99,55.99,70,13,1.99,MX,14-01-2021 17:27:28
jutai,-5.1833,-68.9,72,72,72,98,100,1.36,BR,14-01-2021 17:38:31
fort nelson,58.8053,-122.7002,10.4,10.4,10.4,85,40,3.44,CA,14-01-2021 17:38:32
faanui,-16.4833,-151.75,81.23,81.23,81.23,76,39,15.86,PF,14-01-2021 17:38:33
matagami,49.7502,-77.6328,26.6,26.6,26.6,100,90,4.61,CA,14-01-2021 17:38:34
vila velha,-20.3297,-40.2925,74.55,75.2,73.99,88,75,3.44,BR,14-01-2021 17:34:18
riyadh,24.6877,46.7219,58.33,59,57.2,25,0,8.08,SA,14-01-2021 17:37:59
alofi,-19.0595,-169.9187,77,77,77,94,92,4.61,NU,14-01-2021 17:32:15
cherskiy,68.75,161.3,-26.14,-26.14,-26.14,85,98,3.06,RU,14-01-2021 17:31:29
vazhiny,60.9644,34.0222,-11.34,-11.34,-11.34,88,86,7.16,RU,14-01-2021 17:38:42
road town,18.4167,-64.6167,77.34,78.01,75.99,88,1,20,VG,14-01-2021 17:38:16
rawson,-43.3002,-65.1023,68.45,68.45,68.45,55,100,19.84,AR,14-01-2021 17:38:47
kapaa,22.0752,-159.319,68.77,69.8,68,88,90,13.8,US,14-01-2021 17:30:16
hasaki,35.7333,140.8333,57.9,59,57.2,38,0,6.91,JP,14-01-2021 17:38:47
torbay,47.6666,-52.7314,30.43,32,28,93,90,11.5,CA,14-01-2021 17:29:40
mandiana,10.6333,-8.6833,64.11,64.11,64.11,25,53,5.19,GN,14-01-2021 17:38:51
noyabrsk,63.1994,75.4507,0.27,0.27,0.27,86,8,16.91,RU,14-01-2021 17:38:54
marzuq,14.4,46.4667,66.09,66.09,66.09,27,0,3.94,YE,14-01-2021 17:38:56
ouallam,14.3188,2.0866,66.67,66.67,66.67,23,0,10,NE,14-01-2021 17:38:57
saint-philippe,-21.3585,55.7679,76.71,86,71.01,70,0,5.75,RE,14-01-2021 17:38:24
port elizabeth,-33.918,25.5701,68,68,68,100,90,12.66,ZA,14-01-2021 17:31:05
hammerfest,70.6634,23.6821,32,32,32,100,75,16.11,NO,14-01-2021 17:39:00
severo-yeniseyskiy,60.3725,93.0408,-7.83,-7.83,-7.83,90,100,16.2,RU,14-01-2021 17:39:02
lavrentiya,65.5833,-171,1.02,1.02,1.02,92,93,3.22,RU,14-01-2021 17:39:03
paamiut,61.994,-49.6678,21.38,21.38,21.38,94,60,4.76,GL,14-01-2021 17:39:04
manaure,11.7751,-72.4445,75.78,75.78,75.78,78,100,11.74,CO,14-01-2021 17:39:05
mananara,-16.1667,49.7667,88.25,88.25,88.25,61,3,4.34,MG,14-01-2021 17:39:06
zhaozhou,45.6833,125.3167,-0.29,-0.29,-0.29,90,100,2.66,CN,14-01-2021 17:39:07
general roca,-39.0333,-67.5833,69.8,69.8,69.8,78,75,4.61,AR,14-01-2021 17:39:08
salamiyah,35.0113,37.0532,54.93,54.93,54.93,67,81,12.73,SY,14-01-2021 17:39:09
jurado,7.1053,-77.7641,75.4,75.4,75.4,88,100,3.4,CO,14-01-2021 17:39:10
verkhoyansk,67.5447,133.385,-44.77,-44.77,-44.77,63,18,2.01,RU,14-01-2021 17:39:11
bengkulu,-3.8004,102.2655,84.92,84.92,84.92,61,100,7.25,ID,14-01-2021 17:32:37
sorland,67.667,12.6934,32,32,32,93,75,5.75,NO,14-01-2021 17:30:46
namanyere,-7.5167,31.05,65.5,65.5,65.5,92,100,1.39,TZ,14-01-2021 17:39:15
lumut,4.2323,100.6298,87.4,87.8,87.01,70,40,2.3,MY,14-01-2021 17:39:17
cape town,-33.9258,18.4232,73.58,75.99,71.01,73,0,4.61,ZA,14-01-2021 17:25:42
kulhudhuffushi,6.6221,73.07,80.49,80.49,80.49,77,100,6.96,MV,14-01-2021 17:39:19
te anau,-45.4167,167.7167,68,68,68,60,0,4.74,NZ,14-01-2021 17:39:20
zhoucheng,35.9122,116.3117,55.02,55.02,55.02,41,0,11.95,CN,14-01-2021 17:39:21
ahero,-0.1746,34.9163,80.55,80.55,80.55,44,2,2.35,KE,14-01-2021 17:39:22
nishihara,26.1842,127.7558,67.89,69.8,66.2,39,75,9.22,JP,14-01-2021 17:39:23
luga,58.7372,29.8453,4.05,4.05,4.05,93,100,7.78,RU,14-01-2021 17:39:25
poum,-20.2333,164.0167,79.03,79.03,79.03,88,100,15.26,NC,14-01-2021 17:39:26
tasiilaq,65.6145,-37.6368,35.6,35.6,35.6,64,75,11.86,GL,14-01-2021 17:31:07
mount isa,-20.7333,139.5,100.4,100.4,100.4,20,2,12.66,AU,14-01-2021 17:39:28
oranjemund,-28.55,16.4333,68.77,68.77,68.77,77,49,7.54,NA,14-01-2021 17:35:14
royan,45.6285,-1.0281,46.2,48.2,45,100,75,6.91,FR,14-01-2021 17:39:32
puerto lleras,3.0223,-73.4044,71.56,71.56,71.56,84,96,3.29,CO,14-01-2021 17:39:33
hamilton,39.1834,-84.5333,36.45,37.99,35.01,65,1,3.44,US,14-01-2021 17:39:34
sao jose da coroa grande,-8.8978,-35.1478,76.55,76.55,76.55,82,100,7.85,BR,14-01-2021 17:39:36
hami,42.8,93.45,25.34,25.34,25.34,77,93,1.92,CN,14-01-2021 17:39:37
frutal,-20.0247,-48.9406,70.63,70.63,70.63,95,100,5.53,BR,14-01-2021 17:39:38
talara,-4.5772,-81.2719,72.3,72.3,72.3,76,100,11.56,PE,14-01-2021 17:39:39
ilulissat,69.2167,-51.1,24.8,24.8,24.8,80,90,5.75,GL,14-01-2021 17:39:40
bathsheba,13.2167,-59.5167,77,77,77,73,20,21.85,BB,14-01-2021 17:39:41
hovd,48.0056,91.6419,9.37,9.37,9.37,76,100,2.08,MN,14-01-2021 17:39:43
port macquarie,-31.4333,152.9167,82.42,89.01,75.99,79,8,1.01,AU,14-01-2021 17:37:05
tuatapere,-46.1333,167.6833,59,59,59,94,4,10,NZ,14-01-2021 17:30:27
corinto,37.9407,22.9573,48.99,48.99,48.99,40,54,4,GR,14-01-2021 17:39:46
haapiti,-17.5667,-149.8667,81.3,82,80.6,74,40,3.44,PF,14-01-2021 17:39:48
stokmarknes,68.5646,14.9108,28.27,30,26.01,81,91,6.64,NO,14-01-2021 17:39:49
cidreira,-30.1811,-50.2056,70.93,70.93,70.93,67,69,14.58,BR,14-01-2021 17:31:40
namibe,-15.1961,12.1522,72.75,72.75,72.75,67,90,2.13,AO,14-01-2021 17:36:23
ribeira grande,38.5167,-28.7,62.98,62.98,62.98,86,99,20.4,PT,14-01-2021 17:36:28
hithadhoo,-0.6,73.0833,82.02,82.02,82.02,76,56,21.77,MV,14-01-2021 17:31:41
abbeville,50.1,1.8333,44.1,48,39.99,47,100,10.87,FR,14-01-2021 17:39:55
omsukchan,62.5333,155.8,-38.13,-38.13,-38.13,77,99,4.09,RU,14-01-2021 17:39:56
praia da vitoria,38.7333,-27.0667,62.35,62.6,62.01,94,75,20.96,PT,14-01-2021 17:32:57
brigantine,39.4101,-74.3646,35.55,41,24.8,100,90,7,US,14-01-2021 17:36:58
monrovia,6.3005,-10.7969,75.2,75.2,75.2,94,75,2.86,LR,14-01-2021 17:38:26
kagoro,9.6,8.3833,68.54,68.54,68.54,23,21,4.56,NG,14-01-2021 17:40:00
ca mau,9.1769,105.15,85.42,85.42,85.42,41,56,4.81,VN,14-01-2021 17:39:42
ofaqim,31.3141,34.6203,55.99,55.99,55.99,100,0,3,IL,14-01-2021 17:40:02
victoria,22.2855,114.1577,63.97,66,61,46,36,1.07,HK,14-01-2021 17:27:01
nuuk,64.1835,-51.7216,24.4,24.8,24.01,93,90,9.22,GL,14-01-2021 17:40:04
veraval,20.9,70.3667,80.58,80.58,80.58,28,2,3.87,IN,14-01-2021 17:40:07
sangar,63.9242,127.4739,-45.17,-45.17,-45.17,77,5,4.81,RU,14-01-2021 17:35:21
tabas,33.5959,56.9244,57.61,57.61,57.61,24,0,3.22,IR,14-01-2021 17:40:11
kodiak,57.79,-152.4072,30.2,30.2,30.2,93,90,5.75,US,14-01-2021 17:40:12
clyde river,70.4692,-68.5914,-4,-4,-4,84,90,6.91,CA,14-01-2021 17:40:13
sibu,2.3,111.8167,82.15,82.4,82,78,40,5.75,MY,14-01-2021 17:40:14
jining,35.405,116.5814,56.59,56.59,56.59,39,0,11.3,CN,14-01-2021 17:40:15
luderitz,-26.6481,15.1594,68.41,68.41,68.41,72,57,4.5,NA,14-01-2021 17:31:48
bambous virieux,-20.3428,57.7575,84.11,84.2,84,70,40,11.5,MU,14-01-2021 17:31:44
arica,-18.475,-70.3042,68,68,68,77,90,1.79,CL,14-01-2021 17:40:19
viedma,-40.8135,-62.9967,66.99,66.99,66.99,69,100,1.01,AR,14-01-2021 17:36:10
saldanha,-33.0117,17.9442,66.2,66.2,66.2,62,0,17.27,ZA,14-01-2021 17:40:23
jumla,29.2747,82.1838,64.58,64.58,64.58,19,0,5.73,NP,14-01-2021 17:34:42
comodoro rivadavia,-45.8667,-67.5,55.4,55.4,55.4,82,0,1.14,AR,14-01-2021 17:40:25
margate,51.3813,1.3862,40.96,42.01,39.99,91,100,4,GB,14-01-2021 17:40:26
touros,-5.1989,-35.4608,77.9,77.9,77.9,77,99,10.83,BR,14-01-2021 17:40:27
mabaruma,8.2,-59.7833,69.08,69.08,69.08,98,98,1.97,GY,14-01-2021 17:40:28
lompoc,34.6391,-120.4579,57.02,66.2,46.4,87,1,8.52,US,14-01-2021 17:31:28
speightstown,13.25,-59.65,77,77,77,73,20,21.85,BB,14-01-2021 17:40:32
colgong,25.2667,87.2167,68.74,68.74,68.74,33,0,5.03,IN,14-01-2021 17:40:33
sumbe,-11.2061,13.8437,77,77,77,68,40,3.44,AO,14-01-2021 17:40:34
bethel,41.3712,-73.414,32.34,34,30,86,90,3.53,US,14-01-2021 17:38:34
natal,-5.795,-35.2094,78.8,78.8,78.8,78,40,5.75,BR,14-01-2021 17:40:09
provideniya,64.3833,-173.3,1.08,1.08,1.08,91,100,5.95,RU,14-01-2021 17:40:41
poya,-21.35,165.15,76.73,76.73,76.73,91,100,4.52,NC,14-01-2021 17:40:42
aksha,50.2814,113.2867,2.12,2.12,2.12,82,86,6.82,RU,14-01-2021 17:40:43
bonthe,7.5264,-12.505,74.41,74.41,74.41,93,5,4.88,SL,14-01-2021 17:40:44
ipameri,-17.7219,-48.1597,67.89,67.89,67.89,91,98,3.49,BR,14-01-2021 17:40:45
sao filipe,14.8961,-24.4956,71.01,71.01,71.01,71,50,14.81,CV,14-01-2021 17:40:46
siderno,38.2779,16.302,43.74,51.8,39,87,20,4.61,IT,14-01-2021 17:40:47
vila franca do campo,37.7167,-25.4333,60.91,61,60.8,94,75,8.05,PT,14-01-2021 17:40:48
ranau,5.9538,116.6641,84.13,84.2,84,79,20,5.75,MY,14-01-2021 17:40:50
ponta do sol,32.6667,-17.1,50.85,57.2,44.01,67,40,10.36,PT,14-01-2021 17:33:32
beyneu,45.3167,55.2,39.96,39.96,39.96,68,43,35.28,KZ,14-01-2021 17:40:53
villa rica,33.7321,-84.9191,29.26,30.99,28,94,0,1.99,US,14-01-2021 17:37:37
jalu,29.0331,21.5482,53.83,53.83,53.83,66,0,18.9,LY,14-01-2021 17:40:55
romanovo,52.6182,81.2271,-18.6,-18.6,-18.6,88,100,8.75,RU,14-01-2021 17:40:57
dehloran,32.6941,47.2679,64.31,64.31,64.31,26,100,9.69,IR,14-01-2021 17:40:59
dorado,18.4588,-66.2677,72.93,75.2,72,94,75,7.72,PR,14-01-2021 17:41:00
maragogi,-9.0122,-35.2225,76.21,76.21,76.21,83,100,7.52,BR,14-01-2021 17:41:01
nador,35.174,-2.9287,41.61,46.4,35.6,81,0,4.85,MA,14-01-2021 17:41:02
tiksi,71.6872,128.8694,-35.05,-35.05,-35.05,84,78,3.24,RU,14-01-2021 17:31:34
havelock,34.8791,-76.9013,46.29,48,45,93,100,1.99,US,14-01-2021 17:41:05
takapau,-40.0333,176.35,71.01,71.01,71.01,70,100,5.99,NZ,14-01-2021 17:41:06
juneau,58.3019,-134.4197,32.52,37.4,28,87,75,8.05,US,14-01-2021 17:41:07
rundu,-17.9333,19.7667,69.85,69.85,69.85,85,100,4.34,NA,14-01-2021 17:41:09
bijawar,24.6333,79.5,66.2,66.2,66.2,42,0,2.3,IN,14-01-2021 17:37:16
meulaboh,4.1363,96.1285,85.21,85.21,85.21,59,17,7.34,ID,14-01-2021 17:38:49
hobyo,5.3505,48.5268,79.2,79.2,79.2,67,98,21.9,SO,14-01-2021 17:41:12
praya,14.9215,-23.5087,69.8,69.8,69.8,73,75,21.85,CV,14-01-2021 17:41:13
gamba,-2.65,10,73.99,73.99,73.99,90,96,4.63,GA,14-01-2021 17:34:28
shiraz,29.6036,52.5388,41,41,41,52,0,0.45,IR,14-01-2021 17:41:15
vigrestad,58.5667,5.7,19.47,19.99,19,86,0,3.44,NO,14-01-2021 17:41:17
arlit,18.7369,7.3853,65.5,65.5,65.5,26,0,0.83,NE,14-01-2021 17:41:19
cooma,-36.2333,149.1333,80.6,80.6,80.6,12,2,17.27,AU,14-01-2021 17:41:21
klaksvik,62.2266,-6.589,41,41,41,81,20,20.71,FO,14-01-2021 17:41:23
hokitika,-42.7167,170.9667,64.8,64.8,64.8,87,2,11.81,NZ,14-01-2021 17:41:24
severomuysk,56.1481,113.4267,-24.43,-24.43,-24.43,86,73,3.96,RU,14-01-2021 17:41:27
goderich,43.7501,-81.7165,37.4,37.4,37.4,81,100,5.75,CA,14-01-2021 17:41:28
shache,38.4167,77.2406,53.74,53.74,53.74,26,0,1.19,CN,14-01-2021 17:41:30
shahreza,32.0339,51.8794,49.26,49.26,49.26,32,0,2.15,IR,14-01-2021 17:41:32
tshikapa,-6.4167,20.8,73.26,73.26,73.26,90,99,3.33,CD,14-01-2021 17:41:33
tilichiki,60.4667,166.1,-24.7,-24.7,-24.7,85,0,7.47,RU,14-01-2021 17:40:17
goulburn,-34.75,149.7167,87.1,88,86,22,0,4,AU,14-01-2021 17:41:37
dhidhdhoo,6.8833,73.1,80.6,80.6,80.6,76,100,7.29,MV,14-01-2021 17:41:38
shangzhi,45.2167,127.9667,1.13,1.13,1.13,91,67,4.99,CN,14-01-2021 17:41:39
udachnyy,66.4167,112.4,-26.34,-26.34,-26.34,83,100,12.57,RU,14-01-2021 17:41:40
tual,-5.6667,132.75,83.08,83.08,83.08,75,100,7.9,ID,14-01-2021 17:41:41
mnogovershinnyy,53.9353,139.9242,-14.66,-14.66,-14.66,89,100,2.75,RU,14-01-2021 17:36:51
nizwa,22.9333,57.5333,74.84,74.84,74.84,19,0,5.26,OM,14-01-2021 17:41:43
kampene,-3.6,26.6667,71.17,71.17,71.17,96,99,2.13,CD,14-01-2021 17:41:44
bethanien,-26.502,17.1583,77.38,77.38,77.38,62,100,5.06,NA,14-01-2021 17:41:45
tommot,58.9564,126.2925,-30.69,-30.69,-30.69,78,2,0.74,RU,14-01-2021 17:41:46
sainte-luce,14.4673,-60.9271,75.07,77,73,83,75,13.8,MQ,14-01-2021 17:41:47
petukhovo,55.0692,67.9019,-14.71,-14.71,-14.71,86,0,3.8,RU,14-01-2021 17:41:48
ampanihy,-24.7,44.75,88.57,88.57,88.57,47,7,6.64,MG,14-01-2021 17:41:49
nyurba,63.2842,118.3319,-12.96,-12.96,-12.96,88,100,6.73,RU,14-01-2021 17:41:50
san carlos,9.6612,-68.5827,70.81,70.81,70.81,78,99,3.53,VE,14-01-2021 17:41:51
leningradskiy,69.3833,178.4167,-3.28,-3.28,-3.28,91,100,2.33,RU,14-01-2021 17:41:52
challans,46.8436,-1.8749,48.2,50,46.4,93,90,9.22,FR,14-01-2021 17:41:55
alugan,12.2188,125.4808,82.98,82.98,82.98,70,0,6.93,PH,14-01-2021 17:41:56
upernavik,72.7868,-56.1549,12.94,12.94,12.94,95,100,11.88,GL,14-01-2021 17:41:57
muromtsevo,56.3724,75.2418,-12.68,-12.68,-12.68,88,58,8.21,RU,14-01-2021 17:41:58
russell,32.3502,-85.1999,31.87,37.4,28.99,86,1,3.96,US,14-01-2021 17:41:59
hualmay,-11.0964,-77.6139,70.29,70.29,70.29,88,100,8.75,PE,14-01-2021 17:36:58
agboville,5.928,-4.2132,73.27,73.27,73.27,94,19,0.45,CI,14-01-2021 17:42:02
necochea,-38.5473,-58.7368,53.01,53.01,53.01,86,0,13.31,AR,14-01-2021 17:42:03
vardo,70.3705,31.1107,14,17.6,10.4,79,75,13.8,NO,14-01-2021 17:42:04
mwinilunga,-11.7358,24.4293,65.86,65.86,65.86,94,98,8.41,ZM,14-01-2021 17:42:05
egvekinot,66.3167,-179.1667,-7.28,-7.28,-7.28,90,100,10.87,RU,14-01-2021 17:42:06
porbandar,21.6422,69.6093,78.8,78.8,78.8,36,20,5.75,IN,14-01-2021 17:42:08
inhambane,-23.865,35.3833,86,86,86,74,40,2.3,MZ,14-01-2021 17:42:09
grand gaube,-20.0064,57.6608,84,84,84,69,32,8.01,MU,14-01-2021 17:42:11
lokosovo,61.1333,74.8167,-8.1,-8.1,-8.1,87,0,13.13,RU,14-01-2021 17:42:13
grand baie,-20.0182,57.5802,84,84,84,69,44,8.01,MU,14-01-2021 17:42:14
mahibadhoo,3.7833,72.9667,81.54,81.54,81.54,80,4,15.43,MV,14-01-2021 17:42:15
sept-iles,50.2001,-66.3821,22.21,23,21.2,93,100,3.44,CA,14-01-2021 17:38:27
nikita,44.5333,34.2333,31.75,31.75,31.75,94,100,3.24,UA,14-01-2021 17:42:18
vao,-22.6667,167.4833,77.59,77.59,77.59,85,100,19.01,NC,14-01-2021 17:42:19
aripuana,-9.1667,-60.6333,72.27,72.27,72.27,99,100,0.72,BR,14-01-2021 17:42:20
puerto gaitan,4.3133,-72.0816,75.7,75.7,75.7,74,99,8.19,CO,14-01-2021 17:42:21
loandjili,-4.7561,11.8578,77,77,77,94,75,3.44,CG,14-01-2021 17:42:23
kaitangata,-46.2817,169.8464,60.01,60.01,60.01,89,1,11.01,NZ,14-01-2021 17:42:24
madimba,-10.4,40.3333,80.6,80.6,80.6,89,75,13.8,TZ,14-01-2021 17:42:25
san patricio,28.017,-97.5169,44.28,46.99,42.8,93,1,5.75,US,14-01-2021 17:34:30
canyon lake,29.8752,-98.2625,42.15,45,41,73,0,9.06,US,14-01-2021 17:42:27
altay,47.8667,88.1167,-0.47,-0.47,-0.47,85,58,1.36,CN,14-01-2021 17:40:42
broceni,56.7,22.5333,22.55,22.55,22.55,97,100,6.42,LV,14-01-2021 17:42:30
mehamn,71.0357,27.8492,30.2,30.2,30.2,86,90,18.41,NO,14-01-2021 17:38:20
lorengau,-2.0226,147.2712,85.32,85.32,85.32,67,53,9.46,PG,14-01-2021 17:39:09
mackay,-21.15,149.2,82.4,82.4,82.4,65,44,17.27,AU,14-01-2021 17:42:38
bilibino,68.0546,166.4372,-22.4,-22.4,-22.4,83,77,2.3,RU,14-01-2021 17:42:39
thompson,55.7435,-97.8558,26.6,26.6,26.6,100,90,3.44,CA,14-01-2021 17:42:42
stromness,58.965,-3.296,41,41,41,75,75,18.41,GB,14-01-2021 17:41:55
tromso,69.6496,18.957,27.64,28.4,27,80,90,17.27,NO,14-01-2021 17:42:45
manado,1.487,124.8455,82.4,82.4,82.4,83,40,6.91,ID,14-01-2021 17:39:44
san quintin,30.4833,-115.95,59.14,59.14,59.14,51,5,5.79,MX,14-01-2021 17:42:47
tougue,11.4667,-11.6,61.16,61.16,61.16,29,0,1.16,GN,14-01-2021 17:42:48
ketchikan,55.3422,-131.6461,37.4,37.4,37.4,100,90,5.75,US,14-01-2021 17:42:49
khurba,50.4072,136.8819,-3.15,-3.15,-3.15,90,99,2.77,RU,14-01-2021 17:42:50
rio grande,-32.035,-52.0986,68,68,68,72,0,1.01,BR,14-01-2021 17:42:00
belmonte,-15.8631,-38.8828,75.2,75.2,75.2,88,75,3.44,BR,14-01-2021 17:42:53
muros,42.7762,-9.0603,44.6,46,43,83,100,4,ES,14-01-2021 17:42:54
trairi,-3.2778,-39.2689,78.3,78.3,78.3,79,100,8.34,BR,14-01-2021 17:42:11
paita,-5.0892,-81.1144,70.88,70.88,70.88,81,74,9.26,PE,14-01-2021 17:42:57
harper,4.375,-7.7169,77.32,77.32,77.32,83,100,4.41,LR,14-01-2021 17:42:58
petropavlovsk-kamchatskiy,53.0452,158.6483,6.8,6.8,6.8,51,7,4.47,RU,14-01-2021 17:42:59
khingansk,49.1167,131.1833,-12.15,-12.15,-12.15,91,98,4.97,RU,14-01-2021 17:43:01
avera,33.194,-82.5271,35.42,37.4,33.8,87,1,5.75,US,14-01-2021 17:43:06
la asuncion,11.0333,-63.8628,75.72,75.72,75.72,87,100,14.67,VE,14-01-2021 17:43:07
wellington,-41.2866,174.7756,67.33,71.01,66,77,0,8.05,NZ,14-01-2021 17:43:08
buchanan,5.8808,-10.0467,75.2,75.2,75.2,94,75,2.48,LR,14-01-2021 17:43:09
kahului,20.8947,-156.47,70.5,75.2,64.99,69,1,5.75,US,14-01-2021 17:42:30
lasa,46.6166,10.7002,31.24,33.01,30.2,100,90,4.61,IT,14-01-2021 17:43:11
sobolevo,54.4299,31.8996,7.5,7.5,7.5,94,93,8.48,RU,14-01-2021 17:38:21
talaya,61.3833,152.75,-35.77,-35.77,-35.77,80,100,1.74,RU,14-01-2021 17:43:13
geraldton,-28.7667,114.6,95,95,95,28,63,24.16,AU,14-01-2021 17:38:30
conde,-7.2597,-34.9075,75.2,75.2,75.2,94,20,2.3,BR,14-01-2021 17:43:16
yarada,17.65,83.2667,84.2,84.2,84.2,54,20,9.22,IN,14-01-2021 17:43:17
salalah,17.0151,54.0924,80.6,80.6,80.6,18,0,12.66,OM,14-01-2021 17:38:36
athabasca,54.7169,-113.2854,26.6,26.6,26.6,68,0,14.97,CA,14-01-2021 17:43:19
bandarbeyla,9.4942,50.8122,76.8,76.8,76.8,67,1,20.67,SO,14-01-2021 17:41:06
beloha,-25.1667,45.05,90.64,90.64,90.64,43,0,7.2,MG,14-01-2021 17:43:21
poronaysk,49.2167,143.1167,2.41,2.41,2.41,87,51,9.86,RU,14-01-2021 17:43:23
kungurtug,50.5994,97.5228,0.84,0.84,0.84,86,100,1.79,RU,14-01-2021 17:43:24
shimoda,34.6667,138.95,54.99,59,51.01,44,0,4.61,JP,14-01-2021 17:43:26
severo-kurilsk,50.6789,156.125,21.36,21.36,21.36,84,100,9.15,RU,14-01-2021 17:43:27
ryde,50.73,-1.1621,48.99,50,48,98,100,3,GB,14-01-2021 17:43:29
barra do garcas,-15.89,-52.2567,72.82,72.82,72.82,91,100,0.92,BR,14-01-2021 17:43:32
sistranda,63.7256,8.834,17.6,17.6,17.6,93,20,12.66,NO,14-01-2021 17:43:33
ibotirama,-12.1853,-43.2206,69.48,69.48,69.48,86,100,1.57,BR,14-01-2021 17:39:09
henties bay,-22.116,14.2845,69.01,69.01,69.01,86,91,6.13,NA,14-01-2021 17:37:13
znamenskoye,57.1281,73.8282,-13.52,-13.52,-13.52,88,25,6.04,RU,14-01-2021 17:43:40
flinders,-34.5833,150.8552,78.91,84,72,68,0,7,AU,14-01-2021 17:43:41
puquio,-14.7,-74.1333,53.28,53.28,53.28,68,100,1.3,PE,14-01-2021 17:43:42
vila do maio,15.1333,-23.2167,69.8,69.8,69.8,73,75,21.85,CV,14-01-2021 17:43:43
jega,12.2175,4.3792,65.59,65.59,65.59,25,71,10.65,NG,14-01-2021 17:43:45
cuiluan,47.72,128.648,1.49,1.49,1.49,88,82,6.2,CN,14-01-2021 17:43:46
baykit,61.67,96.37,2.77,2.77,2.77,87,100,11.72,RU,14-01-2021 17:43:48
gerash,27.6652,54.1371,53.6,53.6,53.6,24,0,6.91,IR,14-01-2021 17:43:49
portland,45.5234,-122.6762,42.71,45,39.99,87,40,5.75,US,14-01-2021 17:42:16
broken hill,-31.95,141.4333,86,86,86,20,0,13.8,AU,14-01-2021 17:43:53
zemio,5.0314,25.1361,79.97,79.97,79.97,27,72,4.27,CF,14-01-2021 17:43:54
progreso,21.2833,-89.6667,68,68,68,94,75,11.14,MX,14-01-2021 17:43:55
suzaka,36.65,138.3167,43,43,43,79,75,5.99,JP,14-01-2021 17:43:56
saint albans,51.75,-0.3333,40.57,42.01,37.4,100,90,9.22,GB,14-01-2021 17:43:59
boyolangu,-8.1181,111.8935,84.67,84.67,84.67,66,100,9.6,ID,14-01-2021 17:44:00
panalingaan,8.7842,117.4231,82.6,82.6,82.6,75,100,5.48,PH,14-01-2021 17:44:01
vredendal,-31.6683,18.5012,80.29,80.29,80.29,46,0,3.24,ZA,14-01-2021 17:44:02
daru,-9.0763,143.2092,83.84,83.84,83.84,81,100,8.66,PG,14-01-2021 17:44:03
west odessa,31.8424,-102.4988,45.1,46,44.6,33,1,10.36,US,14-01-2021 17:44:04
tiznit,29.5833,-9.5,45.43,45.43,45.43,56,0,1.59,MA,14-01-2021 17:44:05
jacqueville,5.2052,-4.4146,77,77,77,94,20,2.3,CI,14-01-2021 17:44:06
opuwo,-18.0607,13.84,68.49,68.49,68.49,49,100,4.47,NA,14-01-2021 17:44:07
tsumeb,-19.2333,17.7167,70.23,70.23,70.23,83,100,7.38,NA,14-01-2021 17:44:08
gerede,40.8008,32.1969,28.38,28.38,28.38,99,100,4.05,TR,14-01-2021 17:44:09
ostrovnoy,68.0531,39.5131,2.84,2.84,2.84,93,74,23.62,RU,14-01-2021 17:44:11
tahe,52.3333,124.7333,-7.55,-7.55,-7.55,86,81,1.66,CN,14-01-2021 17:44:12
partyzany,46.3314,34.7503,31.82,31.82,31.82,92,72,3.76,UA,14-01-2021 17:44:13
bonavista,48.6499,-53.1147,28.27,30.99,26.6,93,0,2.3,CA,14-01-2021 17:44:14
nioro,13.35,-15.75,67.37,67.37,67.37,24,0,9.22,GM,14-01-2021 17:44:15
nago,26.5881,127.9761,68,69.8,66.2,49,75,13.8,JP,14-01-2021 17:44:16
traverse city,44.7631,-85.6206,33.73,35.6,32,80,90,3.44,US,14-01-2021 17:44:18
tabory,58.5198,64.5495,-10.21,-10.21,-10.21,86,0,5.68,RU,14-01-2021 17:44:19
sauda,59.6506,6.3542,23,23,23,75,0,4,NO,14-01-2021 17:44:20
half moon bay,37.4636,-122.4286,54.91,57.2,53.01,100,1,5.75,US,14-01-2021 17:44:21
serik,36.9169,31.0989,52.5,55,50,76,75,2.3,TR,14-01-2021 17:42:19
aksarka,66.5606,67.7975,-3.21,-3.21,-3.21,87,100,15.59,RU,14-01-2021 17:44:24
tebingtinggi,3.3285,99.1625,86,86,86,74,75,9.22,ID,14-01-2021 17:44:25
severobaykalsk,55.65,109.3167,-4.27,-4.27,-4.27,83,97,1.48,RU,14-01-2021 17:44:26
mahebourg,-20.4081,57.7,84.2,84.2,84.2,70,40,11.5,MU,14-01-2021 17:44:27
singleton,-32.5667,151.1833,97,97,97,35,49,8.99,AU,14-01-2021 17:44:29
west wendover,40.7391,-114.0733,32,32,32,74,1,4.61,US,14-01-2021 17:44:30
hastings,50.8552,0.5729,43.43,46.99,39,91,100,1.01,GB,14-01-2021 17:44:31
valdivia,-39.8142,-73.2459,42.8,42.8,42.8,100,19,1.59,CL,14-01-2021 17:44:06
kabin buri,13.9511,101.7177,87.21,87.21,87.21,28,0,4.29,TH,14-01-2021 17:44:35
pozo colorado,-23.4923,-58.7972,76.26,76.26,76.26,89,94,1.5,PY,14-01-2021 17:44:36
hofn,64.2539,-15.2082,42.71,42.71,42.71,92,100,3.89,IS,14-01-2021 17:44:37
verkh-usugli,52.7,115.1667,-8.23,-8.23,-8.23,77,0,1.23,RU,14-01-2021 17:44:39
saint-augustin,51.226,-58.6502,19.94,19.94,19.94,94,100,4.72,CA,14-01-2021 17:44:10
veinticinco de mayo,-35.4323,-60.1727,63,63,63,80,0,4,AR,14-01-2021 17:44:43
fortuna,40.5982,-124.1573,54.28,55,53.01,100,90,4.38,US,14-01-2021 17:44:48
eydhafushi,5.1033,73.0708,81.07,81.07,81.07,75,11,6.96,MV,14-01-2021 17:44:49
sioux lookout,50.1001,-91.917,24.8,24.8,24.8,93,90,6.91,CA,14-01-2021 17:44:50
hambantota,6.1241,81.1185,84.2,84.2,84.2,84,75,4.61,LK,14-01-2021 17:44:53
raudeberg,61.9875,5.1352,17.73,25,3.2,74,0,8.05,NO,14-01-2021 17:44:54
coahuayana,18.7333,-103.6833,76.14,76.14,76.14,46,99,2.55,MX,14-01-2021 17:44:55
zhumadian,32.9794,114.0294,61.12,61.12,61.12,38,0,13.4,CN,14-01-2021 17:44:56
chifeng,42.2683,118.9636,15.96,15.96,15.96,94,100,2.71,CN,14-01-2021 17:44:58
mujiayingzi,42.1167,118.7833,16.25,16.25,16.25,94,95,3.29,CN,14-01-2021 17:44:59
boa vista,2.8197,-60.6733,77,77,77,78,0,13.8,BR,14-01-2021 17:45:03
alta floresta,-9.8756,-56.0861,69.91,69.91,69.91,98,96,1.77,BR,14-01-2021 17:45:05
yuzawa,39.1667,140.5,32.76,33.8,32,74,75,14.97,JP,14-01-2021 17:45:06
adrar,20.5022,-10.0711,55.26,55.26,55.26,34,21,13.22,MR,14-01-2021 17:45:07
ouadda,8.0777,22.4007,79.3,79.3,79.3,20,0,5.95,CF,14-01-2021 17:45:08
astoria,46.1879,-123.8313,42.93,43,42.8,87,1,8.05,US,14-01-2021 17:45:09
middlesbrough,54.5762,-1.2348,33.76,35.01,33.01,95,100,1.99,GB,14-01-2021 17:41:48
atyrau,47.1167,51.8833,28.4,28.4,28.4,69,99,40.26,KZ,14-01-2021 17:41:09
andenes,69.3143,16.1194,33.1,33.8,32,93,75,8.05,NO,14-01-2021 17:45:15
sayansk,54.1088,102.1648,-3.93,-3.93,-3.93,92,100,4.03,RU,14-01-2021 17:45:16
alice,27.7523,-98.0697,42.28,44.6,39.2,100,1,7.23,US,14-01-2021 17:45:17
jiancheng,30.391,104.5491,54.66,55.99,53.6,47,0,6.71,CN,14-01-2021 17:45:18
kardla,58.9978,22.7492,24.8,24.8,24.8,86,90,10.36,EE,14-01-2021 17:45:19
hay river,60.8156,-115.7999,15.8,15.8,15.8,86,100,16.11,CA,14-01-2021 17:40:15
san juan,-31.5375,-68.5364,75.72,75.72,75.72,58,0,10.67,AR,14-01-2021 17:42:36
gizo,-8.103,156.8419,85.33,85.33,85.33,70,96,11.52,SB,14-01-2021 17:45:25
talkha,31.0539,31.3779,57.65,57.65,57.65,54,5,17.22,EG,14-01-2021 17:45:26
ayan,56.45,138.1667,-11.04,-11.04,-11.04,80,32,5.23,RU,14-01-2021 17:45:27
magoula,38.0833,23.5167,46.42,48,45,76,75,9.22,GR,14-01-2021 17:45:29
bambanglipuro,-7.95,110.2833,81.97,81.97,81.97,68,100,4.68,ID,14-01-2021 17:45:30
rajo khanani,24.9841,68.8536,82.18,82.18,82.18,13,0,2.68,PK,14-01-2021 17:45:31
tautira,-17.7333,-149.15,80.29,80.6,80.01,74,40,3.44,PF,14-01-2021 17:45:33
smolenka,52.1352,113.4974,-9.4,-9.4,-9.4,59,83,2.24,RU,14-01-2021 17:45:34
ekibastuz,51.6667,75.3667,-11.7,-11.7,-11.7,85,0,5.82,KZ,14-01-2021 17:45:35
dunedin,-45.8742,170.5036,64.09,64.09,64.09,70,12,6.69,NZ,14-01-2021 17:45:37
peniche,39.3558,-9.3811,49.03,50,48,71,30,13,PT,14-01-2021 17:45:38
north bend,43.4065,-124.2243,48.06,50,46,93,99,5.75,US,14-01-2021 17:41:12
batagay-alyta,67.8006,130.4114,-39.5,-39.5,-39.5,71,4,1.32,RU,14-01-2021 17:44:45
moerai,-22.4333,-151.3333,79.56,79.56,79.56,80,0,14.2,PF,14-01-2021 17:45:43
katherine,-14.4667,132.2667,84.2,84.2,84.2,70,40,9.22,AU,14-01-2021 17:43:44
port lincoln,-34.7333,135.8667,63.46,63.46,63.46,56,0,16.67,AU,14-01-2021 17:45:46
pochutla,15.7432,-96.4661,71.01,71.01,71.01,76,53,2.95,MX,14-01-2021 17:45:47
betioky,-23.7167,44.3833,98.37,98.37,98.37,29,0,1.1,MG,14-01-2021 17:45:48
forio,40.7342,13.8646,50.32,53.01,48,88,100,1.99,IT,14-01-2021 17:45:49
talusan,7.4267,122.8103,83.89,83.89,83.89,70,93,1.21,PH,14-01-2021 17:45:51
gao,16.6362,1.637,68.13,68.13,68.13,22,0,9.24,ML,14-01-2021 17:45:52
kandi,11.1342,2.9386,65.05,65.05,65.05,25,66,5.7,BJ,14-01-2021 17:44:27
kazanka,47.8462,32.8218,24.4,24.8,24.01,93,90,6.71,UA,14-01-2021 17:45:54
avonbridge,55.9335,-3.7412,36.3,37,35.6,93,90,11.5,GB,14-01-2021 17:45:55
wundanyi,-3.4019,38.364,69.94,69.94,69.94,72,0,7,KE,14-01-2021 17:45:56
onega,63.9061,38.1404,-19.32,-19.32,-19.32,87,13,5.37,RU,14-01-2021 17:45:57
berlevag,70.8578,29.0864,24.39,28.4,17.6,74,75,21.85,NO,14-01-2021 17:44:23
kouroussa,10.65,-9.8833,60.84,60.84,60.84,30,2,0.65,GN,14-01-2021 17:46:00
huanuco,-9.9329,-76.2415,63.39,63.39,63.39,64,100,2.57,PE,14-01-2021 17:46:02
elena,42.9333,25.8833,24.91,25,24.8,80,30,4.61,BG,14-01-2021 17:41:07
souillac,-20.5167,57.5167,84.2,84.2,84.2,70,40,11.5,MU,14-01-2021 17:46:04
guerande,47.3291,-2.4283,50,50,50,93,90,12.66,FR,14-01-2021 17:46:05
cap malheureux,-19.9842,57.6142,84,84,84,67,36,5.99,MU,14-01-2021 17:46:06
ritchie,-29.038,24.6028,69.8,69.8,69.8,83,0,13.8,ZA,14-01-2021 17:46:08
saint-pierre,-21.3393,55.4781,77.72,86,71.01,70,0,6.91,RE,14-01-2021 17:46:09
kovdor,67.5662,30.4758,-7.6,-7.6,-7.6,90,100,3.74,RU,14-01-2021 17:39:03
glenwood springs,39.5505,-107.3248,25.18,28.99,17.6,86,90,16.11,US,14-01-2021 17:43:26
vilyuysk,63.7553,121.6247,-25.38,-25.38,-25.38,84,98,8.88,RU,14-01-2021 17:46:12
komsomolskiy,40.4272,71.7189,46.4,46.4,46.4,36,0,1.97,UZ,14-01-2021 17:46:14
lac du bonnet,50.2536,-96.0612,34.54,35.01,34,100,100,3,CA,14-01-2021 17:46:16
emerald,-23.5333,148.1667,94.12,95,93,29,40,11.5,AU,14-01-2021 17:46:17
mkushi,-13.6202,29.3939,67.1,67.1,67.1,92,100,6.13,ZM,14-01-2021 17:46:18
rassvet,46.8333,40.75,32.68,32.68,32.68,92,100,9.53,RU,14-01-2021 17:46:20
kindu,-2.95,25.95,70.03,70.03,70.03,98,100,3.94,CD,14-01-2021 17:46:21
westport,41.1415,-73.3579,34.21,39.2,30,70,90,6.91,US,14-01-2021 17:42:43
isabela,6.7085,121.9711,84.2,84.2,84.2,79,75,4.61,PH,14-01-2021 17:46:23
lapas,38.1,21.4167,45.66,46.4,44.6,46,20,4.61,GR,14-01-2021 17:46:24
pozorice,49.2098,16.7907,28.06,28.99,27,86,20,13.8,CZ,14-01-2021 17:46:26
tuy hoa,13.0833,109.3,71.4,71.4,71.4,76,57,12.33,VN,14-01-2021 17:43:23
yarmouth,41.7057,-70.2286,34.97,37.4,33.8,80,40,7.02,US,14-01-2021 17:46:28
cuamba,-14.8031,36.5372,76.03,76.03,76.03,86,100,2.95,MZ,14-01-2021 17:46:29
coolum beach,-26.5333,153.1,79.07,82,75.99,68,0,1.99,AU,14-01-2021 17:44:24
roald,62.5833,6.1333,24.58,26.6,23,68,0,8.05,NO,14-01-2021 17:46:31
agaro,7.85,36.65,74.88,74.88,74.88,46,40,1.01,ET,14-01-2021 17:46:32
xinqing,48.2333,129.5,0.3,0.3,0.3,88,100,4.68,CN,14-01-2021 17:46:33
prince rupert,54.3161,-130.3201,41.56,42.8,41,70,75,10.36,CA,14-01-2021 17:46:19
ken caryl,39.5773,-105.1169,42.42,48.2,32,34,40,16.11,US,14-01-2021 17:46:36
iqaluit,63.7506,-68.5145,-16.29,-16.01,-16.6,76,1,6.91,CA,14-01-2021 17:46:29
laguna,38.421,-121.4238,53.01,54,52,82,1,9.22,US,14-01-2021 17:38:32
yinchuan,38.4681,106.2731,37.45,37.45,37.45,54,0,10.18,CN,14-01-2021 17:46:39
bulgan,48.8125,103.5347,0.28,0.28,0.28,84,72,0.78,MN,14-01-2021 17:46:40
salina cruz,16.1667,-95.2,74.82,74.82,74.82,60,0,20.56,MX,14-01-2021 17:46:42
castelo branco,39.8222,-7.4909,29.44,33.01,26.01,90,0,0.65,PT,14-01-2021 17:46:43
mbeya,-8.9,33.45,66.56,66.56,66.56,86,98,1.59,TZ,14-01-2021 17:46:46
nosy varika,-20.5833,48.5333,86.59,86.59,86.59,66,8,8.84,MG,14-01-2021 17:46:47
esmeraldas,-19.7625,-44.3139,69.8,69.8,69.8,78,0,10.36,BR,14-01-2021 17:46:48
sur,22.5667,59.5289,74.73,74.73,74.73,44,0,8.03,OM,14-01-2021 17:46:52
boguchany,58.3814,97.4531,-4.83,-4.83,-4.83,88,100,14.09,RU,14-01-2021 17:46:53
bend,44.0582,-121.3153,33.48,36,27,83,19,4.36,US,14-01-2021 17:37:25
labuhan,-6.8844,112.2051,84.54,84.54,84.54,74,100,6.11,ID,14-01-2021 17:46:56
awjilah,29.1081,21.2869,53.64,53.64,53.64,66,0,19.04,LY,14-01-2021 17:46:57
barcelos,41.5388,-8.6151,34.02,36,32,100,40,4.61,PT,14-01-2021 17:46:58
esperance,-33.8667,121.9,69.8,69.8,69.8,43,100,21.85,AU,14-01-2021 17:46:59
kalmunai,7.4167,81.8167,82.58,82.58,82.58,79,25,10.54,LK,14-01-2021 17:47:00
maltahohe,-24.8333,16.9833,74.98,74.98,74.98,59,23,5.73,NA,14-01-2021 17:47:02
kayes,14,-11,66.2,66.2,66.2,24,0,5.28,ML,14-01-2021 17:47:06
beni suef,29.0731,31.0979,59.02,59.02,59.02,43,0,10.96,EG,14-01-2021 17:47:07
garissa,-0.4536,39.6401,82,82,82,58,9,7.52,KE,14-01-2021 17:47:09
nouakchott,18.0858,-15.9785,57.2,57.2,57.2,23,100,12.66,MR,14-01-2021 17:47:10
parabel,58.6978,81.4825,-5.75,-5.75,-5.75,91,100,10.8,RU,14-01-2021 17:47:11
qaqortoq,60.7167,-46.0333,26.6,26.6,26.6,86,75,5.75,GL,14-01-2021 17:42:49
sahuaripa,29.05,-109.2333,48.45,48.45,48.45,42,0,4.09,MX,14-01-2021 17:47:13
kathu,7.9178,98.3332,84.87,86,84,58,20,11.5,TH,14-01-2021 17:47:15
paracuru,-3.41,-39.0306,80.01,80.01,80.01,76,100,18.01,BR,14-01-2021 17:47:16
corning,42.1428,-77.0547,32.2,36,28.4,86,75,6.31,US,14-01-2021 17:47:17
clifton,40.8584,-74.1638,34.59,39.2,30,75,75,3.02,US,14-01-2021 17:46:14
kofele,7.0667,38.7833,60.51,60.51,60.51,50,61,3,ET,14-01-2021 17:47:21
ati,13.2154,18.3353,70.92,70.92,70.92,21,0,12.15,TD,14-01-2021 17:47:23
bolshaya dzhalga,45.9695,42.6966,39.7,39.7,39.7,83,100,13.56,RU,14-01-2021 17:47:25
brae,60.3964,-1.353,41,41,41,60,40,18.41,GB,14-01-2021 17:47:26
buala,-8.145,159.5921,84.02,84.02,84.02,67,57,4.65,SB,14-01-2021 17:47:27
tashtagol,52.7657,87.8894,-3.23,-3.23,-3.23,86,100,2.86,RU,14-01-2021 17:47:29
sawtell,-30.3833,153.1,80.73,82,80.01,65,0,19.57,AU,14-01-2021 17:47:30
yayva,59.3303,57.2641,-8,-8,-8,73,58,2.59,RU,14-01-2021 17:47:31
chernyshevskiy,63.0128,112.4714,-17.23,-17.23,-17.23,88,100,6.33,RU,14-01-2021 17:47:33
tazovskiy,67.4667,78.7,-13.58,-13.58,-13.58,88,100,7.7,RU,14-01-2021 17:47:36
doha,25.2867,51.5333,63.16,66.2,59,45,0,6.91,QA,14-01-2021 17:46:30
nantucket,41.2835,-70.0995,38.17,39.2,37,65,1,10.36,US,14-01-2021 17:47:38
birmitrapur,22.4,84.7667,77.68,77.68,77.68,21,7,3.13,IN,14-01-2021 17:47:39
aitape,-3.1374,142.3475,84.25,84.25,84.25,72,82,7.52,PG,14-01-2021 17:47:40
tonstad,58.6626,6.7169,21.31,27,19,77,0,4.25,NO,14-01-2021 17:47:41
gat,31.61,34.7642,58.17,60.01,55.99,100,3,3,IL,14-01-2021 17:47:42
kuala terengganu,5.3302,103.1408,80.31,80.6,80.01,74,40,4.61,MY,14-01-2021 17:47:44
murindo,6.9848,-76.7544,73.18,73.18,73.18,95,100,1.45,CO,14-01-2021 17:47:45
norman wells,65.282,-126.8329,1.4,1.4,1.4,85,90,4.61,CA,14-01-2021 17:38:25
